,City,Lat,Lng,Temperature,Humidity,Cloudiness,Wind Speed,Country,Date
0,bluff,-46.6,168.33,39.0,83,0,3.0,NZ,1595801804
1,trairi,-3.28,-39.27,77.85,75,98,10.69,BR,1595801682
2,punta arenas,-53.15,-70.92,35.6,74,20,17.22,CL,1595801809
3,avarua,-21.21,-159.78,71.6,88,96,5.82,CK,1595801752
4,hermanus,-34.42,19.23,46.99,84,15,1.01,ZA,1595801813
5,jardim,-21.48,-56.14,71.92,51,95,3.2,BR,1595801816
6,salalah,17.02,54.09,78.8,94,75,3.36,OM,1595801818
7,ushuaia,-54.8,-68.3,33.8,86,90,20.8,AR,1595801820
8,nemuro,43.32,145.57,57.87,84,100,6.53,JP,1595801746
9,san cristobal,7.77,-72.22,86.0,55,40,9.17,VE,1595801620
10,mar del plata,-38.0,-57.56,53.01,76,100,11.41,AR,1595801671
11,bayan,46.08,127.4,70.84,76,0,9.69,CN,1595801829
12,sembe,1.65,14.58,70.45,91,90,2.21,CG,1595801832
13,hilo,19.73,-155.09,93.2,46,20,14.99,US,1595801592
14,georgetown,5.41,100.34,80.6,94,20,3.36,MY,1595801585
15,busselton,-33.65,115.33,63.0,82,59,18.63,AU,1595801651
16,barrow,71.29,-156.79,44.6,93,90,14.99,US,1595801841
17,valparaiso,-33.04,-71.63,60.8,62,100,12.75,CL,1595801632
18,inhambane,-23.86,35.38,63.79,75,0,5.95,MZ,1595801766
19,matagami,49.75,-77.63,84.2,62,75,4.63,CA,1595801848
20,tabuk,17.42,121.44,74.68,87,67,1.36,PH,1595801761
21,vaini,-21.2,-175.2,71.6,83,75,9.17,TO,1595801852
22,sunzha,43.32,45.05,75.2,83,0,6.71,RU,1595801855
23,qaanaaq,77.48,-69.36,46.78,54,0,5.41,GL,1595801858
24,rikitea,-23.12,-134.97,70.23,78,0,20.2,PF,1595801860
25,zigong,29.34,104.78,71.28,93,0,1.86,CN,1595801862
26,constitucion,-35.33,-72.42,52.9,89,100,5.39,CL,1595801788
27,clyde river,70.47,-68.59,46.4,81,1,6.93,CA,1595801867
28,lagoa,39.05,-27.98,72.46,92,49,11.14,PT,1595801869
29,kodiak,57.79,-152.41,60.8,72,20,10.29,US,1595801671
30,urucara,-2.54,-57.76,84.74,49,56,2.15,BR,1595801873
31,ilo,-17.64,-71.34,61.11,74,0,5.32,PE,1595801876
32,luderitz,-26.65,15.16,60.8,72,0,13.87,NA,1595801878
33,iberia,29.95,-91.75,80.6,83,20,13.87,US,1595801880
34,acaponeta,22.5,-105.36,84.79,77,100,4.56,MX,1595801882
35,mataura,-46.19,168.86,39.0,83,0,3.0,NZ,1595801885
36,yar-sale,66.83,70.83,45.81,83,14,8.46,RU,1595801888
37,yulara,-25.24,130.99,39.2,72,0,4.7,AU,1595801644
38,thunder bay,48.4,-89.32,78.8,78,75,2.24,CA,1595801892
39,butaritari,3.07,172.79,83.52,74,1,13.06,KI,1595801894
40,weyburn,49.67,-103.85,75.0,45,0,18.01,CA,1595801897
41,buckeye,33.37,-112.58,107.6,11,55,8.05,US,1595801847
42,sitka,57.05,-135.33,55.4,93,90,9.17,US,1595801901
43,bethel,41.37,-73.41,87.01,45,1,8.05,US,1595801713
44,hirara,24.8,125.28,84.2,83,75,9.17,JP,1595801906
45,chuy,-33.7,-53.46,48.56,83,100,7.14,UY,1595801687
46,cherskiy,68.75,161.3,78.49,35,6,15.75,RU,1595801910
47,esperance,-33.87,121.9,48.2,93,86,17.22,AU,1595801912
48,east london,-33.02,27.91,60.44,66,90,13.78,ZA,1595801894
49,ballina,-28.87,153.57,59.0,62,2,14.99,AU,1595801917
50,ancud,-41.87,-73.82,43.0,75,12,8.05,CL,1595801706
51,castro,-24.79,-50.01,57.54,88,97,3.42,BR,1595801922
52,pushkinskiye gory,57.02,28.91,54.88,84,10,3.94,RU,1595801924
53,new norfolk,-42.78,147.06,45.0,86,100,2.3,AU,1595801926
54,bereznik,62.86,42.71,58.01,84,85,1.1,RU,1595801928
55,khatanga,71.97,102.5,41.04,81,100,10.11,RU,1595801931
56,kaitangata,-46.28,169.85,44.01,77,0,4.0,NZ,1595801933
57,talnakh,69.49,88.4,44.6,93,81,15.66,RU,1595801935
58,kruisfontein,-34.0,24.73,51.01,89,60,2.24,ZA,1595801937
59,bredasdorp,-34.53,20.04,42.8,87,20,3.36,ZA,1595801761
60,tuktoyaktuk,69.45,-133.04,64.4,68,75,8.05,CA,1595801751
61,chokurdakh,70.63,147.92,43.32,79,99,16.11,RU,1595801714
62,albany,42.6,-73.97,90.0,37,40,7.96,US,1595801769
63,carmen,18.63,-91.83,93.2,56,40,6.93,MX,1595801721
64,hithadhoo,-0.6,73.08,82.44,69,97,9.04,MV,1595801951
65,nsoko,-27.03,31.95,56.59,64,0,5.61,SZ,1595801953
66,rongcheng,30.63,117.85,75.67,93,100,0.69,CN,1595801955
67,ribeira grande,38.52,-28.7,73.31,90,55,5.28,PT,1595801703
68,upernavik,72.79,-56.15,44.91,86,91,5.82,GL,1595801729
69,hasaki,35.73,140.83,78.8,88,75,5.82,JP,1595801962
70,kamenka,51.32,42.77,63.0,56,0,8.01,RU,1595801965
71,olutanga,7.31,122.85,82.2,74,78,0.69,PH,1595801967
72,khor,47.89,134.95,70.27,90,52,4.05,RU,1595801969
73,nitra,48.31,18.08,72.0,93,79,3.36,SK,1595801971
74,bethanien,-26.5,17.16,56.26,36,0,5.99,NA,1595801974
75,san andres,12.58,-81.7,80.6,88,90,4.7,CO,1595801976
76,lompoc,34.64,-120.46,72.0,64,10,17.22,US,1595801699
77,port elizabeth,-33.92,25.57,55.4,87,75,10.29,ZA,1595801769
78,sassandra,4.95,-6.08,73.36,86,58,5.82,CI,1595801983
79,amparafaravola,-17.58,48.22,52.77,92,18,4.65,MG,1595801985
80,provideniya,64.38,-173.3,48.2,81,99,13.42,RU,1595801987
81,linjiang,41.81,126.91,66.85,88,98,1.7,CN,1595801989
82,sola,-13.88,167.55,80.6,88,90,5.82,VU,1595801992
83,torbay,47.67,-52.73,57.99,100,90,13.87,CA,1595801994
84,porto novo,6.5,2.6,77.0,88,40,10.29,BJ,1595801996
85,wanning,18.8,110.4,81.39,85,33,11.12,CN,1595801998
86,mangai,-4.05,19.53,75.38,56,0,2.08,CD,1595802001
87,hobart,-42.88,147.33,45.0,100,75,5.82,AU,1595801875
88,vardo,70.37,31.11,62.6,82,40,9.17,NO,1595802005
89,carnarvon,-24.87,113.63,50.0,100,0,6.93,AU,1595802007
90,klaksvik,62.23,-6.59,51.8,76,100,12.75,FO,1595802010
91,grootfontein,-19.57,18.12,48.74,50,0,6.73,NA,1595802012
92,lakes entrance,-37.88,147.98,51.01,97,100,8.32,AU,1595802014
93,yellowknife,62.46,-114.35,73.0,43,20,10.29,CA,1595802016
94,atuona,-9.8,-139.03,79.92,73,3,25.21,PF,1595802019
95,dingzhou,38.51,115.0,71.6,94,90,4.47,CN,1595802021
96,vadso,70.07,29.75,60.8,82,36,9.17,NO,1595802023
97,villa de cura,10.04,-67.49,72.01,91,100,2.95,VE,1595802025
98,tiznit,29.58,-9.5,75.6,58,0,0.85,MA,1595802028
99,nanortalik,60.14,-45.24,45.99,83,42,3.8,GL,1595802030
100,adrar,20.5,-10.07,95.92,26,0,7.92,MR,1595801767
101,arraial do cabo,-22.97,-42.03,71.6,94,20,3.36,BR,1595801765
102,caibarien,22.52,-79.47,89.6,70,40,12.75,CU,1595802037
103,codrington,-38.27,141.97,51.08,84,73,17.92,AU,1595802039
104,santa maria,-29.68,-53.81,57.2,67,12,5.82,BR,1595801828
105,aleksandrov gay,50.15,48.57,68.4,46,43,8.14,RU,1595802044
106,saint-philippe,-21.36,55.77,66.99,77,66,4.7,RE,1595802046
107,sao filipe,14.9,-24.5,76.26,85,94,6.67,CV,1595802048
108,okhotsk,59.38,143.3,58.5,75,0,2.89,RU,1595802051
109,kapaa,22.08,-159.32,82.0,74,90,19.46,US,1595802053
110,zhuhai,22.28,113.57,86.0,89,20,8.05,CN,1595802055
111,victoria,22.29,114.16,86.0,74,43,8.99,HK,1595802057
112,vila franca do campo,37.72,-25.43,69.8,88,20,10.29,PT,1595802060
113,cape town,-33.93,18.42,54.0,71,20,9.17,ZA,1595801913
114,longyearbyen,78.22,15.64,59.0,72,40,4.7,SJ,1595802064
115,quixada,-4.97,-39.02,77.29,50,100,4.27,BR,1595802067
116,yerofey pavlovich,53.97,121.97,65.95,96,100,7.72,RU,1595802069
117,zhezkazgan,47.8,67.71,73.9,34,78,10.83,KZ,1595802071
118,riyadh,24.69,46.72,91.4,33,12,6.13,SA,1595801775
119,tuatapere,-46.13,167.68,39.0,83,1,3.0,NZ,1595802075
120,lahat,-3.8,103.53,69.21,85,25,2.44,ID,1595802078
121,requena,39.49,-1.1,73.0,54,0,5.97,ES,1595801874
122,gondanglegi,-7.75,112.01,71.28,84,9,12.01,ID,1595802082
123,la rioja,42.25,-2.5,77.0,61,0,2.24,ES,1595801839
124,kavieng,-2.57,150.8,82.83,76,100,8.03,PG,1595801806
125,sechura,-5.56,-80.82,71.4,60,72,17.34,PE,1595802089
126,kavaratti,10.57,72.64,81.27,81,47,11.88,IN,1595802091
127,nikolskoye,59.7,30.79,57.0,87,0,1.68,RU,1595802094
128,benghazi,32.12,20.07,78.28,81,0,14.67,LY,1595802096
129,cidreira,-30.18,-50.21,57.54,81,100,15.1,BR,1595802098
130,karratha,-20.74,116.85,63.07,30,65,13.13,AU,1595802100
131,lavrentiya,65.58,-171.0,62.35,59,92,16.49,RU,1595802103
132,saskylakh,71.92,114.08,37.78,94,100,18.39,RU,1595802105
133,aklavik,68.22,-135.01,69.8,49,75,4.7,CA,1595802107
134,cayenne,4.93,-52.33,78.8,88,64,9.42,GF,1595802109
135,beringovskiy,63.05,179.32,65.84,65,45,4.21,RU,1595802112
136,akureyri,65.68,-18.09,46.4,75,75,8.05,IS,1595802114
137,jiwani,25.05,61.74,84.27,77,100,10.27,PK,1595802116
138,noumea,-22.28,166.46,75.0,73,2,3.36,NC,1595801975
139,viedma,-40.81,-63.0,48.99,76,83,7.0,AR,1595802120
140,bengkulu,-3.8,102.27,74.53,85,81,4.07,ID,1595801951
141,kokopo,-4.35,152.26,79.65,75,91,4.18,PG,1595802125
142,valdivia,-39.81,-73.25,48.2,81,6,4.7,CL,1595802116
143,broken hill,-31.95,141.43,46.4,87,75,12.75,AU,1595802129
144,padilla,3.22,-76.31,84.2,54,40,9.17,CO,1595802132
145,boa vista,2.82,-60.67,82.4,74,75,6.93,BR,1595802005
146,rundu,-17.93,19.77,59.0,41,0,3.36,NA,1595802136
147,manta,-0.95,-80.73,75.2,78,75,4.7,EC,1595802138
148,tiksi,71.69,128.87,37.13,94,100,12.75,RU,1595802140
149,richards bay,-28.78,32.04,65.91,74,35,11.32,ZA,1595802143
150,hervey bay,-25.3,152.85,55.99,83,40,5.99,AU,1595802145
151,camacupa,-12.02,17.48,54.52,41,0,4.45,AO,1595802147
152,namibe,-15.2,12.15,66.56,82,4,5.84,AO,1595802150
153,thompson,55.74,-97.86,59.0,87,90,10.29,CA,1595802152
154,mashhad,36.3,59.61,80.6,32,0,6.93,IR,1595802155
155,cananeia,-25.01,-47.93,63.64,79,100,4.7,BR,1595802157
156,college,64.86,-147.8,68.0,67,75,4.7,US,1595802160
157,alyangula,-13.85,136.42,71.6,64,40,5.82,AU,1595802162
158,banjar,-8.19,114.97,78.8,100,20,9.17,ID,1595802164
159,touros,-5.2,-35.46,73.4,88,75,6.93,BR,1595802166
160,palu,-0.89,119.87,73.87,79,63,3.06,ID,1595802169
161,kahului,20.89,-156.47,78.8,83,90,9.17,US,1595802171
162,amazar,53.86,120.88,67.32,92,100,4.7,RU,1595802173
163,dikson,73.51,80.55,38.1,92,90,15.14,RU,1595802175
164,nipawin,53.37,-104.0,69.8,64,75,6.93,CA,1595802178
165,novoagansk,61.94,76.66,51.53,73,40,6.13,RU,1595802180
166,chapais,49.78,-74.85,68.0,94,90,6.93,CA,1595802182
167,havre-saint-pierre,50.23,-63.6,71.6,60,75,12.75,CA,1595802184
168,umm lajj,25.02,37.27,89.17,59,93,21.03,SA,1595802187
169,kyshtovka,56.55,76.63,52.2,86,79,4.27,RU,1595802189
170,port alfred,-33.59,26.89,56.88,70,51,9.93,ZA,1595802191
171,warangal,18.0,79.58,78.85,75,55,5.32,IN,1595802193
172,libreville,0.39,9.45,75.2,94,20,6.93,GA,1595802196
173,maceio,-9.67,-35.74,73.4,83,20,4.7,BR,1595802004
174,norman wells,65.28,-126.83,73.4,46,75,13.87,CA,1595802200
175,puerto ayora,-0.74,-90.35,77.0,61,20,20.8,EC,1595802202
176,jamestown,42.1,-79.24,82.0,57,75,10.29,US,1595802205
177,lida,53.88,25.3,61.11,92,98,6.33,BY,1595802207
178,kendari,-3.94,122.5,71.92,93,80,2.82,ID,1595802209
179,sao joao da barra,-21.64,-41.05,73.4,88,75,13.87,BR,1595802211
180,lebu,-37.62,-73.65,50.2,81,97,10.11,CL,1595802213
181,ahuimanu,21.44,-157.84,82.0,83,75,13.87,US,1595802216
182,sorland,67.67,12.69,69.8,43,79,16.11,NO,1595802218
183,saint george,37.1,-113.58,102.0,12,1,6.93,US,1595802220
184,the pas,53.83,-101.25,68.0,60,75,21.92,CA,1595802223
185,leningradskiy,69.38,178.42,66.49,49,61,9.28,RU,1595802225
186,naze,28.37,129.48,82.4,78,75,13.87,JP,1595802227
187,tasiilaq,65.61,-37.64,44.6,81,79,6.93,GL,1595802229
188,evensk,61.95,159.23,55.71,81,22,11.05,RU,1595802232
189,saurimo,-9.66,20.39,64.29,34,0,6.71,AO,1595802234
190,turukhansk,65.82,87.98,49.26,77,90,10.47,RU,1595802238
191,alofi,-19.06,-169.92,75.2,88,57,13.87,NU,1595802241
192,sarmizegetusa,45.52,22.78,60.66,83,98,2.98,RO,1595802243
193,mogoytuy,51.28,114.92,66.72,91,3,4.36,RU,1595802245
194,hare bay,48.85,-54.01,60.8,93,90,11.41,CA,1595802084
195,prokopyevsk,53.91,86.72,55.6,95,57,5.66,RU,1595802250
196,cantaura,9.31,-64.36,79.93,79,58,3.69,VE,1595802252
197,kostomuksha,64.57,30.58,51.75,86,0,3.24,RU,1595802254
198,souillac,-20.52,57.52,69.8,77,75,12.75,MU,1595802257
199,chase,50.82,-119.69,87.8,20,20,4.7,CA,1595802259
200,livingstone,-17.84,25.85,51.33,51,3,3.78,ZM,1595802261
201,baruun-urt,46.68,113.28,60.19,80,28,8.01,MN,1595802263
202,nuevitas,21.55,-77.26,89.6,62,0,18.34,CU,1595802266
203,ilheus,-14.79,-39.05,73.2,84,16,9.6,BR,1595802136
204,la sarre,48.8,-79.2,80.29,81,10,5.59,CA,1595802270
205,kottapalli,18.48,79.1,77.97,79,13,5.66,IN,1595802272
206,hualmay,-11.1,-77.61,64.2,72,8,9.1,PE,1595802275
207,lohja,60.25,24.07,59.0,74,92,7.0,FI,1595802277
208,saldanha,-33.01,17.94,48.2,81,0,5.82,ZA,1595802279
209,raudeberg,61.99,5.14,57.2,93,100,17.22,NO,1595802281
210,ferme-neuve,46.7,-75.45,78.98,84,53,7.49,CA,1595802284
211,galle,6.04,80.22,79.09,86,100,9.98,LK,1595802286
212,council bluffs,41.26,-95.86,82.4,78,90,8.05,US,1595802179
213,austin,30.27,-97.74,78.8,78,75,9.17,US,1595802163
214,carballo,43.21,-8.69,64.4,88,0,0.49,ES,1595802293
215,kaspiyskiy,45.39,47.37,80.69,44,30,16.55,RU,1595802295
216,tungor,53.38,142.96,57.54,80,0,6.15,RU,1595802297
217,severo-kurilsk,50.68,156.12,52.03,89,99,17.2,RU,1595802299
218,elizabeth city,36.29,-76.25,91.4,63,1,11.41,US,1595802048
219,winnemucca,40.97,-117.74,96.8,9,1,11.41,US,1595802304
220,tezu,27.92,96.17,76.41,75,64,2.19,IN,1595802306
221,andapa,-14.65,49.65,61.38,91,100,2.44,MG,1595802308
222,poronaysk,49.22,143.12,57.06,93,99,6.08,RU,1595802310
223,fare,-16.7,-151.02,79.47,79,50,15.75,PF,1595802313
224,sheridan,44.83,-106.92,89.6,24,1,5.82,US,1595802315
225,gizo,-8.1,156.84,81.91,77,74,6.82,SB,1595802317
226,quatre cocos,-20.21,57.76,70.0,77,75,12.75,MU,1595802320
227,vila velha,-20.33,-40.29,71.6,94,75,3.36,BR,1595802322
228,ponta do sol,32.67,-17.1,69.8,68,20,18.34,PT,1595802259
229,laguna,38.42,-121.42,98.01,26,0,4.0,US,1595802326
230,ileza,61.05,43.9,55.78,93,64,2.95,RU,1595802066
231,nioro,13.35,-15.75,78.94,87,100,9.42,GM,1595802331
232,kirkuk,35.47,44.39,91.38,12,0,5.88,IQ,1595802333
233,manakara,-22.13,48.02,60.69,88,6,4.68,MG,1595802335
234,miandrivazo,-19.52,45.47,64.08,51,0,0.78,MG,1595802337
235,grindavik,63.84,-22.43,50.0,87,83,12.75,IS,1595802340
236,balkanabat,39.51,54.37,92.25,31,0,3.89,TM,1595802226
237,los llanos de aridane,28.66,-17.92,71.6,73,40,16.11,ES,1595802344
238,afzalpur,17.2,76.35,75.49,82,9,10.45,IN,1595802346
239,tura,25.52,90.22,76.15,91,94,2.8,IN,1595802349
240,acton vale,45.65,-72.57,86.0,79,66,12.48,CA,1595802163
241,roald,62.58,6.13,60.01,93,100,6.93,NO,1595802353
242,rio gallegos,-51.62,-69.22,33.8,80,46,17.22,AR,1595802231
243,lucan,53.36,-6.44,57.99,93,75,8.05,IE,1595802358
244,port macquarie,-31.43,152.92,55.0,99,100,9.75,AU,1595802264
245,puerto ayacucho,5.66,-67.62,80.6,78,40,0.98,VE,1595802362
246,kolondieba,11.09,-6.89,75.06,88,67,7.54,ML,1595802365
247,galesong,-5.32,119.37,73.4,88,20,2.24,ID,1595802270
248,dunmore town,25.5,-76.65,82.67,80,11,9.46,BS,1595802369
249,anadyr,64.75,177.48,66.2,77,43,11.18,RU,1595802364
250,baytown,29.74,-94.98,84.99,82,92,7.0,US,1595802353
251,la ronge,55.1,-105.28,69.8,64,75,6.93,CA,1595802376
252,fomboni,-12.28,43.74,77.29,74,100,13.51,KM,1595802378
253,kutum,14.2,24.67,73.4,54,89,17.54,SD,1595802381
254,mangaluru,12.87,74.88,77.0,94,40,4.7,IN,1595802383
255,sumkino,58.11,68.32,52.23,88,6,4.92,RU,1595802385
256,kununurra,-15.77,128.73,62.6,36,10,8.05,AU,1595802387
257,gat,31.61,34.76,82.0,85,9,2.17,IL,1595802124
258,joensuu,62.6,29.76,53.6,100,0,2.24,FI,1595802307
259,korla,41.76,86.15,90.0,64,11,4.0,CN,1595802394
260,leeuwarden,53.2,5.81,60.01,87,90,6.93,NL,1595802396
261,wardenburg,53.07,8.2,61.0,87,0,1.01,DE,1595802399
262,vestmannaeyjar,63.44,-20.27,52.52,85,100,3.33,IS,1595802401
263,asau,46.43,26.4,62.01,82,96,3.04,RO,1595802403
264,pisco,-13.7,-76.22,64.4,72,75,8.05,PE,1595802232
265,irbil,36.19,44.01,87.8,19,0,3.36,IQ,1595802408
266,san patricio,19.22,-104.7,89.6,75,40,11.41,MX,1595802408
267,komsomolskiy,40.43,71.72,73.4,60,75,4.7,UZ,1595802413
268,banda aceh,5.56,95.32,79.32,77,99,7.49,ID,1595802271
269,faanui,-16.48,-151.75,79.02,81,43,16.58,PF,1595802233
270,jalu,29.03,21.55,80.01,51,0,11.88,LY,1595802405
271,smidovich,48.6,133.82,69.3,93,72,5.01,RU,1595802422
272,cabo san lucas,22.89,-109.91,89.6,52,5,9.17,MX,1595802233
273,paamiut,61.99,-49.67,46.67,88,15,3.58,GL,1595802279
274,lorengau,-2.02,147.27,82.6,79,100,7.14,PG,1595802254
275,khash,28.22,61.22,69.62,82,1,4.68,IR,1595802431
276,byron bay,-28.65,153.62,60.8,55,13,20.8,AU,1595802434
277,karpogory,64.0,44.45,58.6,84,46,1.23,RU,1595802436
278,darhan,49.49,105.92,59.56,90,8,1.63,MN,1595802438
279,praia da vitoria,38.73,-27.07,77.0,78,40,5.73,PT,1595802440
280,cap malheureux,-19.98,57.61,70.0,71,100,10.0,MU,1595802442
281,santiago del estero,-27.8,-64.26,61.48,32,0,6.06,AR,1595802445
282,dharchula,29.85,80.53,70.38,76,98,0.4,IN,1595802447
283,road town,18.42,-64.62,86.0,70,40,12.75,VG,1595802449
284,dingle,11.0,122.67,76.44,87,14,2.51,PH,1595802451
285,camacari,-12.7,-38.32,75.2,88,75,5.82,BR,1595802454
286,bamnet narong,15.5,101.69,77.76,82,100,2.91,TH,1595802456
287,sergeyevka,53.88,67.42,54.32,86,18,3.91,KZ,1595802458
288,dickson,36.08,-87.39,91.0,66,40,8.05,US,1595802279
289,ambilobe,-13.2,49.05,67.26,84,100,2.53,MG,1595802462
290,blythe,33.61,-114.6,109.4,11,75,8.05,US,1595802465
291,ekhabi,53.51,142.97,57.16,80,0,6.6,RU,1595802467
292,sinnamary,5.38,-52.95,79.9,83,8,8.57,GF,1595802393
293,ambon,-3.7,128.18,78.8,83,40,10.29,ID,1595802353
294,ouadda,8.08,22.4,67.41,95,58,6.29,CF,1595802473
295,harper,4.38,-7.72,75.9,77,84,9.51,LR,1595802476
296,isangel,-19.55,169.27,77.0,83,40,11.41,VU,1595802478
297,vao,-22.67,167.48,71.19,83,5,21.47,NC,1595802480
298,kikwit,-5.04,18.82,77.58,36,13,0.58,CD,1595802482
299,antofagasta,-23.65,-70.4,57.2,71,40,9.17,CL,1595802485
300,olga,43.74,135.29,65.17,80,98,5.82,RU,1595802487
301,pevek,69.7,170.31,54.82,66,89,9.44,RU,1595802385
302,namatanai,-3.67,152.43,82.17,74,100,3.89,PG,1595802392
303,male,4.17,73.51,82.4,78,75,4.7,MV,1595802494
304,xuanhua,40.61,115.04,64.81,84,87,5.39,CN,1595802496
305,svetlaya,46.54,138.33,63.57,75,32,1.34,RU,1595802278
306,nome,64.5,-165.41,63.0,76,75,13.87,US,1595802428
307,madang,-5.22,145.8,77.97,88,99,4.7,PG,1595802503
308,banepa,27.63,85.52,71.6,100,75,3.36,NP,1595802505
309,saint-georges,12.06,-61.75,86.0,70,20,11.41,GD,1595802507
310,ati,13.22,18.34,83.41,62,48,20.85,TD,1595802510
311,zihuatanejo,17.63,-101.55,93.2,56,40,5.82,MX,1595802512
312,padang,-0.95,100.35,73.4,100,40,4.76,ID,1595802514
313,ulundi,-28.34,31.42,57.36,82,32,7.07,ZA,1595802516
314,port-gentil,-0.72,8.78,75.2,88,20,13.11,GA,1595802519
315,cabra,37.47,-4.44,93.2,20,0,8.05,ES,1595802521
316,songkhla,6.83,100.67,77.0,100,20,2.24,TH,1595802523
317,kropotkin,45.44,40.58,70.81,63,2,10.49,RU,1595802525
318,huaihua,27.55,109.96,73.24,95,100,2.59,CN,1595802522
319,fortuna,40.6,-124.16,63.0,80,17,3.0,US,1595802271
320,samarai,-10.62,150.67,79.25,85,72,7.72,PG,1595802432
321,chapleau,47.84,-83.4,82.4,69,75,3.36,CA,1595802534
322,geraldton,-28.77,114.6,53.6,76,0,17.22,AU,1595802406
323,chippewa falls,44.94,-91.39,84.2,62,1,6.93,US,1595802538
324,atar,20.52,-13.05,93.36,30,0,13.67,MR,1595802261
325,lincoln,40.8,-96.67,86.0,62,75,18.34,US,1595802543
326,veraval,20.9,70.37,83.07,82,1,11.21,IN,1595802276
327,bilma,18.69,12.92,92.37,15,0,6.73,NE,1595802450
328,futtsu,35.31,139.82,80.6,83,75,16.11,JP,1595802549
329,lafiagi,8.87,5.42,74.79,91,41,5.88,NG,1595802552
330,faya,18.39,42.45,69.8,72,40,5.82,SA,1595802554
331,hamilton,39.18,-84.53,93.99,49,1,8.05,US,1595802476
332,griffith,41.53,-87.42,93.2,59,40,12.75,US,1595802558
333,hokitika,-42.72,170.97,48.07,66,0,3.09,NZ,1595802561
334,szamotuly,52.61,16.58,64.0,88,72,5.82,PL,1595802563
335,jalaun,26.15,79.34,91.42,49,39,3.69,IN,1595802565
336,solnechnyy,50.72,136.63,62.15,95,100,1.52,RU,1595802567
337,sandnessjoen,66.02,12.63,66.2,52,90,9.17,NO,1595802321
338,avera,33.19,-82.53,89.6,55,90,5.82,US,1595802572
339,jumla,29.27,82.18,62.01,71,100,0.4,NP,1595802574
340,sokoto,13.06,5.24,83.77,64,0,10.18,NG,1595802576
341,ilinskiy,55.62,38.12,64.0,88,64,6.71,RU,1595802578
342,cardston,49.2,-113.3,77.0,33,40,8.05,CA,1595802450
343,coquimbo,-29.95,-71.34,59.0,67,51,4.7,CL,1595802583
344,marabba,12.35,32.18,79.88,71,55,14.61,SD,1595802585
345,waipawa,-41.41,175.52,48.2,81,0,5.82,NZ,1595802415
346,rapid city,44.08,-103.23,84.2,26,20,4.7,US,1595802507
347,rudbar,30.15,62.6,85.64,36,0,10.87,AF,1595802592
348,mahebourg,-20.41,57.7,69.8,77,75,12.75,MU,1595802391
349,biak,-0.91,122.88,75.76,81,98,6.98,ID,1595802447
350,senneterre,48.38,-77.23,82.4,65,75,6.93,CA,1595802522
351,mattru,7.62,-11.83,72.21,93,100,3.36,SL,1595802601
352,naica,27.85,-105.48,85.41,40,89,15.93,MX,1595802603
353,khuzhir,53.19,107.34,55.06,93,100,7.49,RU,1595802605
354,sao felix do xingu,-6.64,-51.99,75.97,48,0,1.48,BR,1595802608
355,toktogul,41.87,72.94,63.5,76,97,1.01,KG,1595802610
356,atikokan,48.76,-91.62,78.93,34,6,11.59,CA,1595802612
357,port hawkesbury,45.62,-61.35,68.0,94,90,12.75,CA,1595802495
358,korhogo,9.45,-5.63,71.47,92,56,5.32,CI,1595802617
359,itarema,-2.92,-39.92,77.72,76,56,12.84,BR,1595802619
360,katsuura,35.13,140.3,80.01,90,50,3.0,JP,1595802366
361,kingston,18.0,-76.79,89.6,59,20,23.04,JM,1595802624
362,san quintin,30.48,-115.95,73.81,66,3,15.05,MX,1595802626
363,ahipara,-35.17,173.17,55.17,61,0,5.86,NZ,1595802628
364,ambunti,-4.24,142.84,79.25,87,55,0.69,PG,1595802631
365,batagay-alyta,67.8,130.41,60.66,45,98,10.2,RU,1595802430
366,susanino,58.15,41.59,53.89,88,0,0.11,RU,1595802635
367,cabadiangan,9.75,122.47,80.58,80,20,1.68,PH,1595802637
368,ganzhou,28.82,115.43,77.85,92,100,5.41,CN,1595802640
369,sur,22.57,59.53,87.46,62,94,11.41,OM,1595802642
370,samsun,41.25,36.33,69.8,83,0,1.12,TR,1595802644
371,katobu,-4.94,122.53,74.89,86,73,3.53,ID,1595802646
372,linguere,15.4,-15.12,81.82,63,0,11.23,SN,1595802649
373,tambovka,50.1,128.05,69.8,94,20,4.47,RU,1595802651
374,mitsamiouli,-11.38,43.28,74.97,78,99,11.48,KM,1595802653
375,imbituba,-28.24,-48.67,62.6,63,75,5.82,BR,1595802655
376,ostrovnoy,68.05,39.51,57.9,80,86,4.05,RU,1595802452
377,taltal,-25.4,-70.48,57.56,71,18,0.72,CL,1595802660
378,thayetmyo,19.32,95.18,78.57,84,100,3.83,MM,1595802409
379,roebourne,-20.78,117.13,62.98,31,38,11.61,AU,1595802435
380,isla aguada,18.78,-91.47,93.2,56,40,6.93,MX,1595802666
381,bati,11.18,40.02,69.57,72,99,5.28,ET,1595802668
382,tyumentsevo,53.32,81.5,53.85,91,0,0.51,RU,1595802670
383,lindsay,36.2,-119.09,100.0,22,0,5.82,US,1595802673
384,conceicao do araguaia,-8.26,-49.26,87.8,35,46,3.36,BR,1595802675
385,raiwala,30.02,78.22,81.86,65,20,3.0,IN,1595802677
386,nara,34.69,135.8,75.2,94,75,8.05,JP,1595802680
387,karakol,42.49,78.39,58.73,80,100,2.01,KG,1595802682
388,lazaro cardenas,17.96,-102.2,86.32,63,26,9.35,MX,1595802386
389,te anau,-45.42,167.72,42.62,76,17,0.16,NZ,1595802686
390,kudahuvadhoo,2.67,72.89,82.38,70,75,6.08,MV,1595802689
391,iqaluit,63.75,-68.51,53.6,76,40,3.36,CA,1595802691
392,leshukonskoye,64.9,45.76,62.31,79,90,3.74,RU,1595802693
393,norsup,-16.07,167.38,80.6,78,75,8.05,VU,1595802695
394,magistralnyy,56.17,107.45,61.27,62,100,1.48,RU,1595802697
395,rondonopolis,-16.47,-54.64,75.63,34,0,2.48,BR,1595802677
396,kuhdasht,33.53,47.61,77.59,18,0,5.44,IR,1595802702
397,moose factory,51.26,-80.61,82.4,78,40,9.17,CA,1595802704
398,maneadero,31.72,-116.57,79.0,42,21,8.01,MX,1595802707
399,tuy hoa,13.08,109.3,78.08,84,25,6.49,VN,1595802709
400,teya,60.38,92.63,52.23,89,0,1.25,RU,1595802711
401,aurdal,60.92,9.42,51.01,97,100,5.01,NO,1595802713
402,mpulungu,-8.76,31.11,66.6,64,1,8.61,ZM,1595802715
403,dori,14.04,-0.03,89.1,49,20,8.55,BF,1595802718
404,ilulissat,69.22,-51.1,44.6,93,100,3.36,GL,1595802720
405,nova olinda do norte,-3.89,-59.09,80.87,55,85,1.5,BR,1595802722
406,abbeville,50.1,1.83,59.0,80,95,5.1,FR,1595802724
407,cervo,43.67,-7.41,64.0,91,0,3.42,ES,1595802726
408,shu,43.6,73.76,73.98,44,100,7.29,KZ,1595802729
409,marzuq,14.4,46.47,77.59,61,94,3.76,YE,1595802440
410,coahuayana,18.73,-103.68,80.6,74,75,3.91,MX,1595802734
411,den helder,52.96,4.76,63.0,88,90,10.29,NL,1595802736
412,turayf,31.67,38.66,93.2,18,10,11.41,SA,1595802739
413,sao geraldo do araguaia,-6.4,-48.55,78.57,38,5,3.58,BR,1595802741
414,rasht,37.28,49.58,76.96,69,32,1.97,IR,1595802743
415,vicuna,-30.03,-70.71,71.01,22,78,0.87,CL,1595802551
416,makakilo city,21.35,-158.09,82.4,78,75,5.82,US,1595802748
417,takoradi,4.88,-1.76,74.3,87,57,8.9,GH,1595802750
418,pangkalanbuun,-2.68,111.62,72.0,95,59,2.33,ID,1595802752
419,khasan,42.43,130.64,65.7,96,100,9.89,RU,1595802755
420,tromso,69.65,18.96,57.2,67,5,28.86,NO,1595802757
421,andenes,69.31,16.12,59.0,67,5,17.22,NO,1595802759
422,lucea,18.45,-78.17,87.8,70,40,12.75,JM,1595802761
423,sarai naurang,32.83,70.78,91.62,44,3,6.24,PK,1595802764
424,taman,45.21,36.72,75.2,88,75,6.71,RU,1595802766
425,garavuti,37.57,68.45,82.4,28,20,6.71,TJ,1595802768
426,singapore,1.29,103.85,82.4,78,75,3.36,SG,1595802550
427,komatipoort,-25.43,31.95,56.34,76,0,5.1,ZA,1595802773
428,bozeman,45.68,-111.04,82.99,28,1,6.93,US,1595802678
429,lerwick,60.15,-1.15,53.6,87,34,8.05,GB,1595802777
430,mabaruma,8.2,-59.78,77.29,90,58,3.15,GY,1595802779
431,san rafael,-34.62,-68.33,51.66,43,86,11.25,AR,1595802782
432,harboore,56.62,8.18,59.0,76,1,1.01,DK,1595802784
433,traverse city,44.76,-85.62,87.8,62,75,5.82,US,1595802746
434,oistins,13.07,-59.53,82.4,78,40,17.22,BB,1595802788
435,bambous virieux,-20.34,57.76,70.0,77,75,12.75,MU,1595802791
436,jogighopa,26.23,90.58,80.08,89,100,0.98,IN,1595802793
437,berdigestyakh,62.1,126.7,67.03,60,100,1.23,RU,1595802795
438,mangalam,9.77,78.67,84.2,70,40,4.7,IN,1595802797
439,manjacaze,-24.71,33.88,56.61,88,0,3.29,MZ,1595802799
440,polunochnoye,60.87,60.42,55.47,88,79,4.18,RU,1595802802
441,lasa,46.62,10.7,57.99,93,5,3.36,IT,1595802804
442,bristol,41.83,-71.17,91.0,43,1,3.36,US,1595802554
443,phalodi,27.13,72.37,89.94,53,0,14.07,IN,1595802808
444,maarianhamina,60.1,19.93,62.6,82,96,10.29,AX,1595802810
445,deputatskiy,69.3,139.9,56.1,72,47,5.66,RU,1595802813
446,collierville,35.04,-89.66,91.0,74,75,6.93,US,1595802815
447,clemson,34.68,-82.84,89.01,61,75,8.05,US,1595802544
448,bosaso,11.28,49.18,87.37,63,29,3.42,SO,1595802822
449,swan hill,-35.34,143.55,48.29,63,73,14.63,AU,1595802824
450,socorro,31.65,-106.3,93.99,30,75,16.11,US,1595802663
451,sangar,63.92,127.47,62.92,69,78,1.9,RU,1595802785
452,sao cristovao,-11.01,-37.21,78.8,69,20,9.17,BR,1595802830
453,kenora,49.82,-94.43,78.8,39,40,16.11,CA,1595802666
454,eureka,40.8,-124.16,66.99,72,90,5.82,US,1595802835
455,krapivinskiy,55.0,86.81,55.4,100,33,8.95,RU,1595802837
456,tarija,-21.54,-64.73,53.62,41,0,0.63,BO,1595802695
457,omaruru,-21.43,15.93,51.84,45,0,5.12,NA,1595802842
458,latung,5.5,120.88,84.29,72,76,6.64,PH,1595802844
459,blantyre,-15.79,35.01,53.33,91,32,4.85,MW,1595802846
460,havoysund,71.0,24.66,64.4,63,16,20.8,NO,1595802826
461,djougou,9.71,1.67,71.6,100,20,2.24,BJ,1595802851
462,medvezhyegorsk,62.92,34.47,53.73,93,29,1.68,RU,1595802853
463,ferrol,43.48,-8.24,66.0,88,0,4.45,ES,1595802855
464,freiburg,46.8,7.15,64.4,72,57,1.12,CH,1595802857
465,laurel,39.1,-76.85,93.99,33,1,5.82,US,1595802583
466,coihaique,-45.58,-72.07,33.8,59,40,4.7,CL,1595802862
467,arrifes,37.77,-25.7,69.8,88,20,8.05,PT,1595802864
468,shingu,33.73,135.98,74.46,93,100,1.32,JP,1595802866
469,acapulco,16.86,-99.89,87.8,66,75,8.05,MX,1595802830
470,chiguayante,-36.92,-73.02,53.6,81,75,6.93,CL,1595802871
471,meulaboh,4.14,96.13,75.38,87,100,5.57,ID,1595802873
472,muros,42.78,-9.06,68.0,76,0,3.0,ES,1595802875
473,japura,-0.32,102.35,72.72,91,84,2.59,ID,1595802877
474,teguise,29.06,-13.56,73.4,73,20,19.46,ES,1595802879
475,conde,-7.26,-34.91,73.4,94,20,5.82,BR,1595802789
476,fakel,57.63,53.03,52.38,92,14,3.65,RU,1595802884
477,bulgan,48.81,103.53,56.5,89,16,5.28,MN,1595802886
478,pangnirtung,66.15,-65.71,53.8,64,100,3.83,CA,1595802888
479,sistranda,63.73,8.83,68.0,63,75,14.99,NO,1595802890
480,puerto madryn,-42.77,-65.04,43.02,77,100,9.06,AR,1595802893
481,sioux lookout,50.1,-91.92,78.8,36,20,10.29,CA,1595802664
482,metro,-5.11,105.31,71.11,94,96,3.83,ID,1595802897
483,omsukchan,62.53,155.8,71.02,38,0,9.33,RU,1595802784
484,mezen,65.85,44.24,58.77,89,92,2.91,RU,1595802901
485,suntar,62.14,117.63,61.48,77,50,2.93,RU,1595802904
486,araceli,10.55,119.99,82.69,74,95,3.94,PH,1595802906
487,wenling,28.37,121.36,80.01,52,100,11.36,CN,1595802908
488,mantua,45.17,10.78,73.99,79,32,5.01,IT,1595802911
489,trincomalee,8.57,81.23,80.83,78,100,14.61,LK,1595802913
490,berlevag,70.86,29.09,58.24,73,2,8.9,NO,1595802915
491,atasu,48.68,71.64,65.79,49,58,4.5,KZ,1595802856
492,bardiyah,31.76,25.09,75.18,88,0,10.98,LY,1595802919
493,espanola,35.99,-106.08,79.0,47,75,4.7,US,1595802922
494,qinhuangdao,39.93,119.59,75.24,66,91,3.24,CN,1595802924
495,tomatlan,19.93,-105.25,82.78,73,84,5.7,MX,1595802926
496,smithers,54.78,-127.17,75.2,50,40,8.05,CA,1595802928
497,saint-francois,46.42,3.91,64.4,72,15,1.66,FR,1595802931
498,tahta,26.77,31.5,89.6,29,0,11.41,EG,1595802933
499,vrangel,42.73,133.08,66.58,86,97,9.24,RU,1595802796
500,orocue,4.79,-71.34,74.39,87,84,2.24,CO,1595802937
501,charters towers,-20.1,146.27,61.79,39,0,11.23,AU,1595802939
502,umm kaddadah,13.6,26.69,83.28,59,45,20.0,SD,1595802942
503,krasnoselkup,65.7,82.47,49.48,65,31,13.6,RU,1595802944
504,seoul,37.57,126.98,73.4,88,90,2.59,KR,1595802946
505,ukiah,39.15,-123.21,98.6,20,1,13.87,US,1595802948
506,bintulu,3.17,113.03,77.0,94,40,4.74,MY,1595802951
507,zhongshu,24.52,103.77,59.7,80,100,2.44,CN,1595802953
508,mlonggo,-6.53,110.7,72.54,77,62,6.33,ID,1595802955
509,laramie,41.31,-105.59,73.4,38,90,14.45,US,1595802957
510,mugur-aksy,50.35,90.5,47.41,66,1,3.0,RU,1595802960
511,aykhal,66.0,111.5,33.8,100,90,8.95,RU,1595802904
512,gubkinskiy,64.43,76.5,51.33,64,83,14.18,RU,1595802964
513,brus laguna,15.75,-84.48,82.53,83,100,5.5,HN,1595802966
514,chiang klang,19.29,100.86,75.38,88,100,0.74,TH,1595802969
515,aksarka,66.56,67.8,45.3,89,0,7.18,RU,1595802971
516,bilibino,68.05,166.44,80.35,26,7,26.06,RU,1595802973
517,narsaq,60.92,-46.05,51.8,71,89,10.29,GL,1595802975
518,lyudinovo,53.87,34.45,59.56,96,78,4.43,RU,1595802977
519,qui nhon,13.77,109.23,79.47,79,6,4.23,VN,1595802980
520,hovd,48.01,91.64,63.23,43,0,7.67,MN,1595802982
521,belmonte,-15.86,-38.88,75.2,73,15,6.93,BR,1595802984
522,comodoro rivadavia,-45.87,-67.5,39.2,80,40,10.29,AR,1595802734
523,prince rupert,54.32,-130.32,64.4,88,90,9.17,CA,1595802988
524,labuhan,-6.88,112.21,72.55,86,50,9.71,ID,1595802990
525,olindina,-11.37,-38.33,67.73,94,46,6.82,BR,1595802993
526,izhma,65.01,53.91,62.2,60,43,3.24,RU,1595802995
527,sakaiminato,35.55,133.23,78.8,83,75,11.41,JP,1595802997
528,half moon bay,37.46,-122.43,81.0,60,5,10.29,US,1595802999
529,ha giang,22.83,104.98,77.22,84,99,3.15,VN,1595803002
530,puerto madero,14.72,-92.42,82.4,88,75,6.93,MX,1595803004
531,khuzdar,27.74,66.64,80.29,58,6,5.64,PK,1595803006
532,okato,-39.2,173.88,46.99,72,6,4.0,NZ,1595803008
533,jimo,36.39,120.46,73.99,94,40,2.24,CN,1595803011
534,stromness,58.97,-3.3,52.0,87,38,7.0,GB,1595803013
535,dezful,32.38,48.41,93.43,23,0,4.34,IR,1595803015
536,at-bashi,41.17,75.81,57.43,71,97,1.83,KG,1595803017
537,ixtapa,20.7,-105.2,87.8,70,40,10.29,MX,1595803020
538,kaeo,-35.1,173.78,57.99,17,0,5.01,NZ,1595803022
539,bohdan,48.04,24.35,62.2,77,92,0.45,UA,1595803024
540,seymchan,62.88,152.43,73.36,41,38,5.66,RU,1595803026
541,mount isa,-20.73,139.5,53.6,35,0,9.17,AU,1595803029
542,bonthe,7.53,-12.51,75.9,80,100,11.99,SL,1595803031
543,ambanja,-13.68,48.45,67.14,89,98,3.8,MG,1595803033
544,zaysan,47.47,84.87,61.57,64,73,1.59,KZ,1595803035
545,rottingdean,50.81,-0.06,63.0,93,100,1.99,GB,1595803037
546,bud,39.45,-86.18,90.0,62,40,4.7,US,1595803040
547,pimenta bueno,-11.67,-61.19,79.27,41,0,3.27,BR,1595803042
548,russkaya polyana,49.42,31.92,65.88,82,100,5.68,UA,1595803044
549,airai,-8.93,125.41,57.07,79,83,5.14,TL,1595803046
550,goderich,43.75,-81.72,86.0,68,99,7.0,CA,1595802769
551,mana,5.66,-53.78,79.39,83,7,9.24,GF,1595803051
552,guerrero negro,27.98,-114.06,77.45,56,0,19.82,MX,1595802963
553,neepawa,50.23,-99.47,75.2,50,75,17.22,CA,1595803055
554,bairiki,1.33,172.98,86.0,74,40,8.05,KI,1595803057
555,esso,55.93,158.7,66.09,46,2,6.69,RU,1595803060
556,lana,46.61,11.16,57.99,100,20,5.82,IT,1595803062
557,beyneu,45.32,55.2,75.9,25,98,9.1,KZ,1595803064
558,olinda,-8.01,-34.86,78.8,69,40,11.41,BR,1595803066
559,taylor,32.3,-99.83,91.4,33,40,6.93,US,1595803069
560,kupang,-10.17,123.58,75.2,83,20,10.29,ID,1595803071
561,zhicheng,30.3,111.5,73.0,97,92,1.77,CN,1595803073
562,otane,-39.88,176.63,42.01,91,0,3.13,NZ,1595803075
563,baillif,16.02,-61.75,84.2,66,3,10.29,GP,1595803078
564,pitea,65.32,21.48,59.0,77,0,8.05,SE,1595803080
565,chardara,41.25,67.97,78.71,30,12,10.96,KZ,1595803082
566,gilbues,-9.83,-45.34,74.25,44,42,7.29,BR,1595803084
567,homa bay,-0.53,34.46,66.2,77,25,4.7,KE,1595803086
568,del rio,29.36,-100.9,91.4,49,1,14.99,US,1595803089
569,cockburn town,21.46,-71.14,82.83,81,0,15.23,TC,1595803091
570,burnie,-41.07,145.92,50.0,75,100,3.0,AU,1595803093
571,bathsheba,13.22,-59.52,82.4,78,40,17.22,BB,1595803095
572,boralday,43.36,76.86,68.0,77,40,6.71,KZ,1595803097
573,juneau,58.3,-134.42,60.01,87,90,8.05,US,1595803100
574,hermanus,-34.42,19.23,46.99,83,14,1.01,ZA,1595804246
575,vaini,-21.2,-175.2,71.6,83,75,9.17,TO,1595804248
576,ust-ilimsk,58.0,102.66,60.98,71,6,4.25,RU,1595804250
577,lucapa,-8.42,20.74,64.63,33,0,4.21,AO,1595804253
578,bud,39.45,-86.18,90.0,66,75,8.05,US,1595804255
579,bubaque,11.28,-15.83,78.21,84,100,6.89,GW,1595804257
580,amga,60.9,131.96,68.58,58,76,2.26,RU,1595804260
581,kodinsk,58.69,99.18,55.89,90,38,0.72,RU,1595804262
582,touros,-5.2,-35.46,73.4,88,75,6.93,BR,1595803984
583,erzin,36.96,36.2,80.01,86,0,1.23,TR,1595804266
584,iqaluit,63.75,-68.51,53.6,76,40,3.36,CA,1595804086
585,tadine,-21.55,167.88,74.44,73,14,15.84,NC,1595804271
586,hithadhoo,-0.6,73.08,82.44,69,97,7.72,MV,1595804273
587,kathmandu,27.72,85.32,71.6,100,75,3.36,NP,1595804275
588,ushuaia,-54.8,-68.3,33.8,86,90,20.8,AR,1595804278
589,khatanga,71.97,102.5,42.03,78,100,10.22,RU,1595804280
590,xingyi,24.19,102.82,58.28,94,100,2.57,CN,1595804282
591,dingle,11.0,122.67,79.36,83,21,2.42,PH,1595804284
592,bengkulu,-3.8,102.27,74.26,84,82,3.8,ID,1595804286
593,yinchuan,38.47,106.27,78.67,29,0,10.36,CN,1595804289
594,quang ngai,15.12,108.8,76.48,85,7,4.79,VN,1595804291
595,new norfolk,-42.78,147.06,46.0,86,100,2.15,AU,1595804232
596,marsa matruh,31.35,27.25,77.0,83,0,7.0,EG,1595804296
597,vostok,46.49,135.88,70.95,66,0,1.05,RU,1595804298
598,saskylakh,71.92,114.08,38.23,95,100,17.16,RU,1595804214
599,tasiilaq,65.61,-37.64,44.6,81,75,6.93,GL,1595804303
600,bhikhi,30.07,75.53,88.12,56,15,1.66,IN,1595804305
601,havoysund,71.0,24.66,62.6,67,16,24.16,NO,1595804307
602,punta arenas,-53.15,-70.92,35.6,74,20,17.22,CL,1595804310
603,thompson,55.74,-97.86,60.8,82,75,10.29,CA,1595804248
604,mar del plata,-38.0,-57.56,53.01,76,100,11.41,AR,1595804314
605,rosarito,32.33,-117.03,80.01,73,5,18.34,MX,1595804317
606,brovst,57.1,9.53,59.0,94,2,1.01,DK,1595804319
607,saint george,37.1,-113.58,102.99,12,1,6.93,US,1595804166
608,cidreira,-30.18,-50.21,57.88,83,100,14.72,BR,1595804139
609,hobart,-42.88,147.33,46.99,93,75,4.7,AU,1595804326
610,torbay,47.67,-52.73,57.99,93,90,18.34,CA,1595804328
611,kapaa,22.08,-159.32,82.99,74,90,19.46,US,1595804277
612,ribeira grande,38.52,-28.7,73.33,90,46,5.14,PT,1595804332
613,airai,-8.93,125.41,57.07,79,83,5.14,TL,1595804276
614,paita,-5.09,-81.11,64.9,79,36,16.49,PE,1595804337
615,georgetown,5.41,100.34,78.8,94,20,4.7,MY,1595804218
616,lamu,-2.27,40.9,76.26,80,21,18.19,KE,1595804047
617,dayong,25.02,118.29,82.4,88,20,4.47,CN,1595804344
618,avarua,-21.21,-159.78,71.6,88,97,6.93,CK,1595804346
619,saint-pierre,-21.34,55.48,68.0,68,65,2.24,RE,1595804348
620,smyshlyayevka,53.24,50.39,57.2,71,0,4.47,RU,1595804350
621,mayo,38.89,-76.51,93.2,41,1,5.82,US,1595804353
622,souillac,-20.52,57.52,69.8,77,75,12.75,MU,1595804356
623,busselton,-33.65,115.33,63.0,83,67,19.66,AU,1595804210
624,cape town,-33.93,18.42,53.01,71,20,9.17,ZA,1595804186
625,barrow,71.29,-156.79,44.6,93,90,14.99,US,1595804363
626,yuzhou,34.16,113.46,69.8,94,75,2.24,CN,1595804365
627,bambous virieux,-20.34,57.76,70.0,77,75,12.75,MU,1595804367
628,rikitea,-23.12,-134.97,70.36,77,0,19.48,PF,1595804369
629,atuona,-9.8,-139.03,80.15,72,3,24.32,PF,1595804372
630,rocha,-34.48,-54.33,45.75,90,80,5.23,UY,1595804375
631,constitucion,-35.33,-72.42,52.21,89,100,7.99,CL,1595804377
632,upernavik,72.79,-56.15,44.83,86,87,5.55,GL,1595804380
633,kavaratti,10.57,72.64,81.3,81,54,12.46,IN,1595804382
634,port lincoln,-34.73,135.87,55.15,85,38,12.37,AU,1595804384
635,carnarvon,-24.87,113.63,50.0,100,0,6.93,AU,1595804386
636,goderich,43.75,-81.72,88.0,68,99,8.01,CA,1595804389
637,kyra,49.58,111.98,62.55,89,96,3.78,RU,1595804391
638,jalu,29.03,21.55,78.84,55,0,11.9,LY,1595804393
639,laguna,38.42,-121.42,99.0,22,5,4.7,US,1595804395
640,clyde river,70.47,-68.59,46.4,81,1,6.93,CA,1595804397
641,muros,42.78,-9.06,66.99,76,0,1.01,ES,1595804400
642,mataura,-46.19,168.86,39.0,83,0,3.0,NZ,1595804402
643,manta,-0.95,-80.73,75.2,78,75,4.7,EC,1595804405
644,shihezi,44.3,86.03,81.09,29,100,3.15,CN,1595804407
645,novobureyskiy,49.8,129.88,72.68,88,99,8.75,RU,1595804409
646,zermatt,46.02,7.75,71.01,60,60,4.7,CH,1595804412
647,bredasdorp,-34.53,20.04,42.8,87,17,3.36,ZA,1595804414
648,mahebourg,-20.41,57.7,69.8,77,75,12.75,MU,1595804416
649,victoria,22.29,114.16,86.0,74,37,8.01,HK,1595804225
650,butaritari,3.07,172.79,83.57,74,10,12.06,KI,1595804421
651,erenhot,43.65,111.98,71.82,65,81,6.4,CN,1595804423
652,bamnet narong,15.5,101.69,77.32,83,100,4.23,TH,1595804425
653,kurumkan,54.3,110.3,64.45,86,100,4.03,RU,1595804427
654,salalah,17.02,54.09,78.8,94,75,3.36,OM,1595804352
655,xining,36.62,101.77,56.75,55,51,3.13,CN,1595804432
656,camana,-16.62,-72.71,60.01,75,13,3.85,PE,1595804237
657,albany,42.6,-73.97,88.0,42,52,6.42,US,1595804157
658,bluff,-46.6,168.33,39.0,83,0,3.0,NZ,1595804439
659,port macquarie,-31.43,152.92,59.0,99,100,10.13,AU,1595804441
660,cherskiy,68.75,161.3,79.81,36,5,14.81,RU,1595804443
661,lawrence,38.97,-95.24,91.4,59,75,5.82,US,1595804255
662,saint-philippe,-21.36,55.77,69.8,68,62,2.24,RE,1595804448
663,longyearbyen,78.22,15.64,59.0,72,40,4.7,SJ,1595804450
664,kita,13.03,-9.49,74.82,88,94,1.99,ML,1595804452
665,berestechko,50.36,25.11,66.0,98,94,1.01,UA,1595804455
666,chuy,-33.7,-53.46,47.73,86,100,7.85,UY,1595804457
667,vestmannaeyjar,63.44,-20.27,52.09,86,100,4.07,IS,1595804459
668,otacilio costa,-27.48,-50.12,48.13,99,100,3.13,BR,1595804461
669,puerto ayora,-0.74,-90.35,70.0,84,68,5.01,EC,1595804354
670,nouadhibou,20.93,-17.03,69.8,88,0,25.28,MR,1595804466
671,lebu,-37.62,-73.65,49.32,82,94,9.26,CL,1595804468
672,kinablangan,7.69,126.55,80.51,75,77,3.49,PH,1595804470
673,champerico,14.3,-91.92,80.6,83,75,9.17,GT,1595804473
674,maku,39.29,44.45,74.64,24,0,5.35,IR,1595804475
675,hilo,19.73,-155.09,93.2,46,20,14.99,US,1595804346
676,castro,-24.79,-50.01,56.52,91,98,3.78,BR,1595804479
677,boende,-0.22,20.87,71.11,97,94,2.75,CD,1595804256
678,sao filipe,14.9,-24.5,76.24,84,87,6.82,CV,1595804484
679,requena,39.49,-1.1,72.0,57,0,5.12,ES,1595804486
680,manadhoo,5.77,73.38,81.46,75,29,8.99,MV,1595804488
681,point pleasant,40.08,-74.07,91.0,52,1,6.93,US,1595804490
682,concepcion de buenos aires,19.97,-103.27,78.8,50,75,9.17,MX,1595804493
683,mehamn,71.04,27.85,59.56,68,3,10.33,NO,1595804495
684,yellowknife,62.46,-114.35,73.4,43,20,11.41,CA,1595804498
685,flinders,-34.58,150.86,62.01,91,100,15.01,AU,1595804500
686,caravelas,-17.71,-39.25,71.51,83,15,5.37,BR,1595804503
687,aketi,2.74,23.78,67.48,94,94,1.21,CD,1595804505
688,brainerd,46.36,-94.2,82.4,42,1,12.75,US,1595804341
689,moerai,-22.43,-151.33,73.02,75,100,6.89,PF,1595804282
690,kiruna,67.86,20.23,55.4,82,32,8.05,SE,1595804512
691,kloulklubed,7.04,134.26,78.8,88,75,5.82,PW,1595804273
692,pokhara,28.23,83.98,72.66,81,97,1.68,NP,1595804516
693,aklavik,68.22,-135.01,69.8,49,75,4.7,CA,1595804381
694,kabin buri,13.95,101.72,75.96,91,97,1.83,TH,1595804521
695,coronado,32.69,-117.18,82.99,64,40,10.29,US,1595804523
696,kodiak,57.79,-152.41,60.8,72,20,10.29,US,1595804525
697,port alfred,-33.59,26.89,57.34,67,61,8.63,ZA,1595804527
698,terekli-mekteb,44.17,45.87,75.49,59,31,6.91,RU,1595804530
699,richards bay,-28.78,32.04,65.34,75,38,11.5,ZA,1595804532
700,patti,31.28,74.86,86.0,79,40,4.16,IN,1595804534
701,norman wells,65.28,-126.83,73.4,43,75,12.75,CA,1595804536
702,lompoc,34.64,-120.46,70.0,60,9,16.11,US,1595804261
703,qaanaaq,77.48,-69.36,45.09,58,0,4.05,GL,1595804541
704,kurilsk,45.23,147.88,57.33,70,1,3.87,RU,1595804543
705,nikolskoye,59.7,30.79,55.99,87,1,2.13,RU,1595804545
706,naze,28.37,129.48,82.4,78,75,13.87,JP,1595804548
707,tuktoyaktuk,69.45,-133.04,66.2,63,75,6.93,CA,1595804347
708,marawi,8.0,124.29,77.0,90,34,4.0,PH,1595804552
709,brecht,51.35,4.63,64.99,87,99,1.01,BE,1595804554
710,vila velha,-20.33,-40.29,72.0,94,75,3.36,BR,1595804543
711,parrita,9.52,-84.32,75.2,83,75,8.05,CR,1595804559
712,ziro,27.63,93.83,59.61,100,97,0.34,IN,1595804561
713,bathsheba,13.22,-59.52,82.4,78,40,17.22,BB,1595804563
714,santa catalina,9.33,122.86,80.91,79,46,3.76,PH,1595804566
715,praya,14.92,-23.51,75.2,88,20,13.87,CV,1595804568
716,coahuayana,18.73,-103.68,80.6,74,75,3.91,MX,1595804570
717,iskateley,67.68,53.15,55.0,89,55,7.0,RU,1595804572
718,killybegs,54.63,-8.45,53.01,94,98,1.01,IE,1595804575
719,port blair,11.67,92.75,81.68,77,100,1.19,IN,1595804577
720,pacific grove,36.62,-121.92,72.0,68,1,13.87,US,1595804521
721,bundaberg,-24.85,152.35,63.0,82,38,8.05,AU,1595804358
722,sabang,5.89,95.32,81.99,74,100,8.68,ID,1595804584
723,kieta,-6.22,155.63,84.25,67,98,6.64,PG,1595804404
724,sitka,57.05,-135.33,57.2,82,90,10.29,US,1595804588
725,norsup,-16.07,167.38,80.6,78,75,8.05,VU,1595804590
726,dikson,73.51,80.55,37.96,91,88,14.99,RU,1595804592
727,kosh-agach,50.0,88.67,44.85,79,0,0.72,RU,1595804595
728,geraldton,-28.77,114.6,51.8,76,0,17.22,AU,1595804597
729,san policarpo,12.18,125.51,80.37,84,30,3.31,PH,1595804599
730,cabo rojo,18.09,-67.15,82.0,90,46,7.87,PR,1595804601
731,kamenka,51.32,42.77,61.0,67,4,8.08,RU,1595804604
732,emmett,43.87,-116.5,93.0,12,0,3.0,US,1595804606
733,mocuba,-16.84,36.99,59.29,96,23,2.68,MZ,1595804608
734,byron bay,-28.65,153.62,60.8,55,12,20.8,AU,1595804589
735,januaria,-15.48,-44.37,70.86,59,40,5.35,BR,1595804612
736,mount gambier,-37.83,140.77,48.2,81,75,10.29,AU,1595804615
737,khasan,42.43,130.64,65.7,96,100,9.89,RU,1595804617
738,komsomolskiy,40.43,71.72,71.6,64,75,4.7,UZ,1595804620
739,anito,12.45,125.29,81.46,80,35,1.59,PH,1595804622
740,ponta do sol,32.67,-17.1,69.8,64,20,24.16,PT,1595804624
741,peniche,39.36,-9.38,64.99,90,0,11.99,PT,1595804627
742,talnakh,69.49,88.4,44.6,93,79,15.66,RU,1595804357
743,onalaska,43.88,-91.24,84.2,66,1,12.75,US,1595804631
744,samarai,-10.62,150.67,79.63,84,66,8.72,PG,1595804633
745,bonthe,7.53,-12.51,75.9,80,100,11.99,SL,1595804636
746,tezu,27.92,96.17,76.3,75,56,2.1,IN,1595804638
747,summerville,33.02,-80.18,87.01,74,1,5.64,US,1595804640
748,cockburn town,21.46,-71.14,82.83,81,0,15.23,TC,1595804642
749,pitkyaranta,61.57,31.48,55.71,87,6,1.81,RU,1595804645
750,tucupita,9.06,-62.05,79.14,86,55,4.34,VE,1595804647
751,koutsouras,35.03,25.95,82.0,40,0,8.01,GR,1595804649
752,portland,45.52,-122.68,100.0,14,1,16.11,US,1595804361
753,sironj,24.1,77.7,80.92,74,0,6.85,IN,1595804654
754,nioro,13.35,-15.75,78.46,88,100,6.8,GM,1595804656
755,viedma,-40.81,-63.0,45.0,87,76,4.0,AR,1595804659
756,bethel,41.37,-73.41,87.01,45,1,8.05,US,1595804661
757,zhangjiakou,40.81,114.88,64.71,82,82,7.09,CN,1595804663
758,chokurdakh,70.63,147.92,42.53,78,99,14.97,RU,1595804665
759,iquique,-20.22,-70.14,60.8,67,90,8.05,CL,1595804667
760,poya,-21.35,165.15,75.83,65,4,4.94,NC,1595804670
761,beruwala,6.48,79.98,79.27,86,100,8.48,LK,1595804672
762,opunake,-39.46,173.86,48.99,88,8,1.01,NZ,1595804674
763,ca mau,9.18,105.15,77.99,86,53,1.16,VN,1595804677
764,saldanha,-33.01,17.94,48.2,81,0,5.82,ZA,1595804679
765,mercedes,-34.65,-59.43,52.0,59,14,4.0,AR,1595804681
766,beringovskiy,63.05,179.32,66.94,64,56,4.27,RU,1595804684
767,changji,44.02,87.32,77.0,33,57,6.71,CN,1595804686
768,araouane,18.9,-3.53,99.19,29,72,7.56,ML,1595804688
769,tiksi,71.69,128.87,37.15,93,100,11.1,RU,1595804690
770,dhangadhi,28.71,80.6,83.14,68,90,2.39,NP,1595804693
771,nemuro,43.32,145.57,58.19,83,100,6.24,JP,1595804695
772,valparaiso,-33.04,-71.63,60.8,62,100,9.17,CL,1595804697
773,visby,57.64,18.3,64.4,88,96,8.05,SE,1595804699
774,makakilo city,21.35,-158.09,84.2,74,40,8.05,US,1595804475
775,sao joao da barra,-21.64,-41.05,72.68,86,32,12.73,BR,1595804704
776,pevek,69.7,170.31,53.42,69,90,4.63,RU,1595804706
777,brunsbuttel,53.9,9.15,59.0,82,10,5.97,DE,1595804708
778,hohhot,40.81,111.65,62.6,93,20,2.24,CN,1595804711
779,panaba,21.28,-88.27,84.97,75,100,9.1,MX,1595804713
780,havre,49.58,0.33,64.4,72,100,3.36,FR,1595804635
781,luau,-10.71,22.22,58.06,43,27,5.68,AO,1595804717
782,mount isa,-20.73,139.5,55.4,35,0,10.29,AU,1595804720
783,narsaq,60.92,-46.05,51.8,71,89,10.29,GL,1595804722
784,faanui,-16.48,-151.75,79.23,80,45,17.72,PF,1595804428
785,bandarbeyla,9.49,50.81,80.35,64,0,20.51,SO,1595804726
786,saint-augustin,51.23,-58.65,57.99,88,27,9.46,CA,1595804729
787,envira,-7.3,-70.22,75.76,86,41,2.64,BR,1595804731
788,lasa,46.62,10.7,57.99,93,5,3.36,IT,1595804734
789,westport,41.14,-73.36,89.6,38,1,10.29,US,1595804508
790,muravlenko,63.79,74.52,50.74,69,84,11.23,RU,1595804738
791,sosnovskoye,55.81,43.17,55.0,100,0,2.68,RU,1595804740
792,bulgan,48.81,103.53,56.5,89,16,5.28,MN,1595804743
793,yerbogachen,61.28,108.01,57.56,82,0,5.32,RU,1595804745
794,severo-kurilsk,50.68,156.12,52.36,88,100,17.07,RU,1595804747
795,kerman,30.28,57.08,80.6,18,0,4.7,IR,1595804750
796,cabo san lucas,22.89,-109.91,89.6,52,5,9.17,MX,1595804727
797,hami,42.8,93.45,81.23,20,0,17.4,CN,1595804754
798,farafangana,-22.82,47.83,60.75,86,0,4.92,MG,1595804757
799,aitape,-3.14,142.35,82.33,73,92,3.06,PG,1595804759
800,ouallam,14.32,2.09,89.22,52,32,7.56,NE,1595804761
801,jamestown,42.1,-79.24,81.0,61,40,11.41,US,1595804763
802,urumqi,43.8,87.6,77.0,33,36,6.71,CN,1595804765
803,igrim,63.19,64.42,50.9,88,0,5.64,RU,1595804768
804,kaitangata,-46.28,169.85,48.99,70,0,3.0,NZ,1595804770
805,bethanien,-26.5,17.16,53.35,41,0,2.1,NA,1595804772
806,lagunas,-5.23,-75.68,74.88,97,83,2.62,PE,1595804774
807,marsabit,2.33,37.99,64.69,75,84,17.76,KE,1595804527
808,cotacachi,0.3,-78.27,68.0,60,75,18.34,EC,1595804779
809,collierville,35.04,-89.66,91.0,70,75,2.66,US,1595804778
810,beloha,-25.17,45.05,58.68,51,0,6.31,MG,1595804783
811,northam,51.03,-4.22,60.01,95,100,8.01,GB,1595804786
812,sao jose da coroa grande,-8.9,-35.15,75.13,80,86,13.58,BR,1595804788
813,da nang,16.07,108.22,77.0,88,20,4.7,VN,1595804501
814,meulaboh,4.14,96.13,75.38,87,100,5.57,ID,1595804793
815,havre-saint-pierre,50.23,-63.6,71.6,60,75,12.75,CA,1595804795
816,tuatapere,-46.13,167.68,39.0,83,0,3.0,NZ,1595804726
817,hasaki,35.73,140.83,82.0,83,75,10.29,JP,1595804799
818,balkanabat,39.51,54.37,92.05,31,0,4.05,TM,1595804801
819,lorengau,-2.02,147.27,83.28,79,100,7.61,PG,1595804804
820,necochea,-38.55,-58.74,50.0,74,100,7.0,AR,1595804806
821,baoro,5.67,15.97,66.92,94,100,2.08,CF,1595804808
822,codrington,-38.27,141.97,51.3,80,70,16.4,AU,1595804810
823,banda aceh,5.56,95.32,79.38,76,100,6.8,ID,1595804813
824,porto franco,-6.34,-47.4,77.76,37,1,3.33,BR,1595804815
825,cayenne,4.93,-52.33,78.8,94,51,10.47,GF,1595804645
826,atambua,-9.11,124.89,69.82,78,61,7.49,ID,1595804820
827,yumen,40.28,97.2,70.2,24,0,3.94,CN,1595804822
828,ihosy,-22.4,46.12,50.2,93,13,3.69,MG,1595804826
829,gilgit,35.92,74.31,79.0,37,14,2.51,PK,1595804828
830,sharya,58.37,45.51,54.68,96,0,4.03,RU,1595804831
831,pecos,31.42,-103.49,93.2,32,40,18.34,US,1595804799
832,arraial do cabo,-22.97,-42.03,71.6,94,20,3.36,BR,1595804836
833,ostrovnoy,68.05,39.51,58.33,79,87,3.89,RU,1595804838
834,coihaique,-45.58,-72.07,33.8,59,40,4.7,CL,1595804840
835,port-gentil,-0.72,8.78,75.2,88,20,13.35,GA,1595804843
836,rock sound,24.9,-76.2,82.44,82,0,10.49,BS,1595804845
837,krasnoselkup,65.7,82.47,49.48,65,31,13.6,RU,1595804847
838,grand-bourg,15.88,-61.31,84.2,78,75,4.7,GP,1595804850
839,merauke,-8.47,140.33,78.35,81,100,16.62,ID,1595804852
840,karratha,-20.74,116.85,62.2,31,57,12.55,AU,1595804696
841,avera,33.19,-82.53,87.8,58,75,3.36,US,1595804856
842,aguimes,27.91,-15.45,73.4,69,75,26.4,ES,1595804858
843,jumla,29.27,82.18,62.04,71,100,0.4,NP,1595804582
844,pouembout,-21.13,164.9,77.11,62,7,6.76,NC,1595804863
845,wanning,18.8,110.4,82.47,83,41,10.65,CN,1595804865
846,christchurch,-43.53,172.63,53.01,100,0,1.12,NZ,1595804750
847,fort nelson,58.81,-122.7,78.8,41,20,5.82,CA,1595804870
848,barreirinha,-2.79,-57.07,82.9,54,42,2.26,BR,1595804872
849,gunnedah,-30.98,150.25,50.0,100,90,24.16,AU,1595804874
850,palmer,42.16,-72.33,87.8,43,75,8.05,US,1595804877
851,tortosa,40.81,0.52,77.0,82,0,3.53,ES,1595804879
852,acarau,-2.89,-40.12,77.59,76,25,13.91,BR,1595804881
853,minab,27.15,57.08,91.4,75,20,11.41,IR,1595804883
854,bolkhov,53.44,36.0,60.06,87,84,4.21,RU,1595804885
855,maldonado,-34.67,-54.92,55.99,66,73,8.05,UY,1595804888
856,tobati,-25.25,-57.07,64.4,48,100,4.7,PY,1595804890
857,axim,4.87,-2.24,74.88,85,78,9.42,GH,1595804892
858,calamar,10.25,-74.91,86.0,74,40,12.75,CO,1595804894
859,okahandja,-21.98,16.92,55.4,43,0,9.17,NA,1595804896
860,tiarei,-17.53,-149.33,84.2,66,75,17.22,PF,1595804899
861,hambantota,6.12,81.12,79.5,81,100,17.72,LK,1595804901
862,buraydah,26.33,43.98,95.0,32,0,6.93,SA,1595804840
863,ribeira brava,32.65,-17.07,69.8,64,20,24.16,PT,1595804905
864,vawkavysk,53.16,24.45,61.95,87,86,2.37,BY,1595804908
865,padang,-0.95,100.35,75.2,94,40,1.12,ID,1595804910
866,san jose,37.34,-121.89,84.0,47,20,12.75,US,1595804700
867,fairbanks,64.84,-147.72,68.0,49,1,9.17,US,1595804888
868,lloydminster,53.28,-110.0,73.4,49,75,17.22,CA,1595804917
869,roebourne,-20.78,117.13,62.42,31,35,11.99,AU,1595804920
870,katherine,-14.47,132.27,60.8,41,0,6.93,AU,1595804850
871,aykhal,66.0,111.5,35.6,100,90,8.95,RU,1595804924
872,soyo,-6.13,12.37,72.01,85,0,7.45,AO,1595804927
873,atar,20.52,-13.05,92.32,31,0,11.9,MR,1595804929
874,ambon,-3.7,128.18,78.8,83,40,9.17,ID,1595804931
875,lipin bor,60.26,37.98,57.0,90,0,4.99,RU,1595804933
876,port hardy,50.7,-127.42,62.6,82,20,4.7,CA,1595804935
877,vavatenina,-17.47,49.2,61.39,93,82,3.36,MG,1595804938
878,przhevalskoye,55.51,31.85,58.06,95,94,2.77,RU,1595804940
879,hokitika,-42.72,170.97,50.85,62,0,2.71,NZ,1595804942
880,novikovo,51.15,37.89,63.46,61,82,6.96,RU,1595804945
881,halifax,44.65,-63.57,73.0,83,75,2.24,CA,1595804947
882,xapuri,-10.65,-68.5,74.59,63,85,1.95,BR,1595804949
883,mitsamiouli,-11.38,43.28,74.97,78,99,11.48,KM,1595804951
884,east london,-33.02,27.91,60.21,66,92,12.97,ZA,1595804954
885,taoudenni,22.68,-3.98,102.13,8,4,16.37,ML,1595804957
886,mersin,36.86,34.65,78.8,94,40,4.14,TR,1595804959
887,bratsk,56.13,101.61,59.0,100,0,4.47,RU,1595804877
888,bilibino,68.05,166.44,80.35,26,7,26.06,RU,1595804965
889,whitianga,-36.83,175.7,59.0,76,68,3.0,NZ,1595804967
890,shimoda,34.67,138.95,80.01,81,100,1.01,JP,1595804969
891,sherwood,34.82,-92.22,93.2,55,40,8.05,US,1595804972
892,borogontsy,62.67,131.17,67.03,63,98,3.89,RU,1595804974
893,vicksburg,32.35,-90.88,84.2,74,1,6.87,US,1595804976
894,tessalit,20.2,1.01,92.32,31,56,5.48,ML,1595804978
895,abu dhabi,24.47,54.37,93.2,63,81,6.93,AE,1595804981
896,felipe carrillo puerto,19.58,-88.05,84.33,77,100,6.58,MX,1595804983
897,tazovskiy,67.47,78.7,45.97,74,95,12.84,RU,1595804985
898,jieshi,22.81,115.83,84.54,80,7,10.65,CN,1595804987
899,kruisfontein,-34.0,24.73,52.32,72,68,1.72,ZA,1595804990
900,bahir dar,11.59,37.39,60.28,89,100,2.1,ET,1595804992
901,linhares,-19.39,-40.07,67.98,90,6,3.0,BR,1595804994
902,ola,59.58,151.28,58.46,78,20,8.05,RU,1595804997
903,pangnirtung,66.15,-65.71,53.8,64,100,3.83,CA,1595804999
904,krasnoye,49.91,24.61,64.4,88,98,3.09,UA,1595805001
905,vilcun,-38.65,-72.23,46.4,87,20,6.93,CL,1595805003
906,amahai,-3.33,128.92,77.88,84,89,5.79,ID,1595805005
907,lockhart,28.62,-81.44,87.01,62,1,9.17,US,1595805008
908,prince rupert,54.32,-130.32,64.4,88,90,9.17,CA,1595805010
909,lagoa,39.05,-27.98,72.48,92,41,10.76,PT,1595805012
910,nanortalik,60.14,-45.24,45.19,83,36,3.49,GL,1595805015
911,bagdarin,54.43,113.6,62.46,91,100,4.47,RU,1595805017
912,jiazi,22.88,116.07,84.18,80,10,10.51,CN,1595805019
913,wuwei,37.93,102.64,71.01,42,31,3.85,CN,1595805021
914,luderitz,-26.65,15.16,62.6,63,0,6.93,NA,1595805024
915,linxi,39.7,118.43,71.89,72,79,3.29,CN,1595805026
916,torrox,36.76,-3.95,78.01,84,0,1.99,ES,1595805028
917,sur,22.57,59.53,87.46,62,94,11.41,OM,1595805030
918,zhmerynka,49.04,28.11,70.0,73,96,6.15,UA,1595805033
919,vila franca do campo,37.72,-25.43,69.8,88,20,5.82,PT,1595805035
920,nuuk,64.18,-51.72,55.4,66,61,6.93,GL,1595805037
921,kalianget,-7.05,113.93,77.14,79,68,12.39,ID,1595805039
922,kostomuksha,64.57,30.58,51.33,86,0,3.33,RU,1595805042
923,moyo,3.66,31.72,64.17,98,54,2.04,UG,1595805044
924,marshfield,44.67,-90.17,82.4,65,1,11.41,US,1595805046
925,faya,18.39,42.45,69.8,72,40,5.82,SA,1595805048
926,loiza,18.43,-65.88,86.0,70,40,12.75,PR,1595805051
927,dagana,16.52,-15.51,86.0,55,0,2.24,MR,1595805053
928,matara,5.95,80.54,77.74,88,100,10.38,LK,1595805055
929,agogo,6.8,-1.08,68.9,96,80,4.52,GH,1595805057
930,dunedin,-45.87,170.5,51.01,65,0,15.99,NZ,1595804844
931,labuhan,-6.88,112.21,72.55,86,50,9.71,ID,1595805062
932,san patricio,19.22,-104.7,87.8,79,75,11.41,MX,1595805064
933,gao,16.64,1.64,93.34,35,79,3.89,ML,1595805067
934,brufut,13.38,-16.75,80.6,94,20,11.95,GM,1595805069
935,puerto colombia,10.99,-74.95,86.0,74,75,11.41,CO,1595805072
936,tura,25.52,90.22,76.15,92,95,3.0,IN,1595805074
937,lethem,3.38,-59.8,78.37,80,77,3.67,GY,1595805076
938,san quintin,30.48,-115.95,73.81,66,3,15.05,MX,1595805079
939,ozernovskiy,51.5,156.52,52.2,90,100,12.06,RU,1595805081
940,yulara,-25.24,130.99,39.2,80,0,7.05,AU,1595805083
941,elizabeth city,36.29,-76.25,91.4,63,1,11.41,US,1595804879
942,isangel,-19.55,169.27,77.0,83,40,11.41,VU,1595805087
943,tilaran,10.47,-84.97,84.2,79,48,9.17,CR,1595805090
944,karpathos,35.51,27.21,75.2,78,0,23.04,GR,1595805092
945,middle island,40.88,-72.94,88.0,70,1,9.17,US,1595805094
946,sohag,26.56,31.69,89.6,29,0,11.41,EG,1595804913
947,inhambane,-23.86,35.38,63.43,76,0,6.08,MZ,1595805099
948,filingue,14.35,3.32,90.12,47,20,5.21,NE,1595805101
949,adrar,20.5,-10.07,94.77,27,0,6.67,MR,1595804967
950,las cruces,32.31,-106.78,95.0,23,1,14.99,US,1595805107
951,paamiut,61.99,-49.67,46.04,90,15,2.01,GL,1595805109
952,luganville,-15.53,167.17,80.6,78,75,8.05,VU,1595805112
953,ilulissat,69.22,-51.1,44.6,93,100,8.05,GL,1595805114
954,tres arroyos,-38.37,-60.28,50.49,62,97,10.51,AR,1595805116
955,goundam,16.41,-3.67,97.05,31,29,7.85,ML,1595805119
956,te anau,-45.42,167.72,42.62,76,17,0.16,NZ,1595805121
957,leningradskiy,69.38,178.42,68.86,45,69,12.53,RU,1595805123
958,gat,31.61,34.76,81.0,70,21,3.0,IL,1595805125
959,san gabriel,34.1,-118.11,90.0,39,1,12.75,US,1595805127
960,port elizabeth,-33.92,25.57,55.4,87,75,10.29,ZA,1595805130
961,pimenta bueno,-11.67,-61.19,79.27,41,0,3.27,BR,1595805132
962,khani,41.96,42.96,77.0,94,75,2.24,GE,1595805134
963,namuac,18.61,121.17,81.5,75,84,4.27,PH,1595805136
964,provideniya,64.38,-173.3,48.2,81,40,15.66,RU,1595805139
965,arica,-18.48,-70.3,60.8,77,20,10.29,CL,1595805141
966,werda,-25.27,23.28,50.76,45,0,4.79,BW,1595805143
967,show low,34.25,-110.03,75.0,60,1,12.75,US,1595805145
968,kalemie,-5.95,29.19,65.64,62,16,4.5,CD,1595805148
969,tianpeng,30.99,103.94,79.0,1,0,4.25,CN,1595805150
970,maceio,-9.67,-35.74,73.4,83,20,4.7,BR,1595805152
971,mogzon,51.74,111.96,62.56,92,99,4.54,RU,1595805154
972,ponnani,10.77,75.93,77.0,88,40,2.24,IN,1595805157
973,bluefields,12.01,-83.76,84.2,74,40,6.35,NI,1595805159
974,smithers,54.78,-127.17,75.2,50,40,8.05,CA,1595805161
975,ukiah,39.15,-123.21,98.6,20,1,13.87,US,1595805163
976,namibe,-15.2,12.15,66.92,78,4,5.39,AO,1595805165
977,ancud,-41.87,-73.82,42.01,75,75,12.75,CL,1595805168
978,puerto narino,-3.77,-70.38,75.2,100,40,3.36,CO,1595805170
979,mahibadhoo,3.78,72.97,82.36,69,99,6.35,MV,1595805172
980,boa vista,2.82,-60.67,82.4,74,75,6.93,BR,1595805174
981,imeni poliny osipenko,52.42,136.49,62.42,74,100,3.89,RU,1595805177
982,alekseyevsk,57.84,108.35,62.37,59,100,5.23,RU,1595805179
983,alofi,-19.06,-169.92,75.2,88,52,13.87,NU,1595805181
984,lazarev,52.23,141.51,57.47,91,99,11.12,RU,1595805183
985,kavieng,-2.57,150.8,83.32,75,100,8.25,PG,1595805187
986,bridgwater,51.13,-3.0,62.01,89,100,10.18,GB,1595805189
987,cap malheureux,-19.98,57.61,70.0,68,100,8.99,MU,1595805191
988,cabedelo,-6.98,-34.83,73.4,94,20,5.82,BR,1595805194
989,nantucket,41.28,-70.1,75.2,88,1,17.22,US,1595805196
990,half moon bay,37.46,-122.43,75.99,60,20,21.92,US,1595805198
991,kushiro,42.98,144.37,57.2,93,75,6.93,JP,1595805200
992,sao jose do campestre,-6.32,-35.71,69.55,85,76,8.1,BR,1595805203
993,lichinga,-13.31,35.24,53.83,86,76,4.12,MZ,1595805205
994,erdaojiang,41.78,126.03,70.32,85,98,0.47,CN,1595805207
995,bac lieu,9.29,105.72,80.4,80,47,1.23,VN,1595805201
996,eyl,7.98,49.82,78.89,68,6,14.79,SO,1595805211
997,yubileynyy,58.78,57.78,51.01,82,26,2.39,RU,1595805214
998,znamenskoye,57.13,73.83,53.71,89,94,2.44,RU,1595805216
999,kudahuvadhoo,2.67,72.89,82.38,70,75,6.08,MV,1595805218
1000,grand gaube,-20.01,57.66,70.0,68,100,8.99,MU,1595805220
1001,alice springs,-23.7,133.88,42.8,75,0,4.7,AU,1595805224
1002,huanren,41.26,125.37,69.22,92,100,0.65,CN,1595805226
1003,iberia,29.95,-91.75,80.6,83,1,10.29,US,1595805228
1004,cefalu,38.04,14.02,73.99,61,0,1.99,IT,1595805231
1005,chicama,-7.84,-79.15,64.18,73,6,7.09,PE,1595804973
1006,dovers,12.88,-61.18,82.4,78,40,10.29,VC,1595805235
1007,praia,14.92,-23.51,75.2,88,20,13.87,CV,1595805237
1008,prieska,-29.66,22.75,49.66,47,0,6.89,ZA,1595805240
1009,dunda,-8.12,34.25,56.23,86,23,3.83,TZ,1595805242
1010,kaeo,-35.1,173.78,60.01,24,0,3.0,NZ,1595805244
1011,tucuman,-26.82,-65.22,62.6,42,0,3.36,AR,1595805132
1012,omboue,-1.57,9.26,73.53,84,51,7.27,GA,1595805249
1013,bembibre,42.62,-6.42,66.0,70,0,1.12,ES,1595805251
1014,coquimbo,-29.95,-71.34,59.0,67,59,4.7,CL,1595805253
1015,galveston,29.37,-94.97,84.99,79,75,16.11,US,1595805033
1016,termoli,41.99,14.99,73.99,57,2,8.01,IT,1595805258
1017,windsor,42.3,-83.02,90.0,58,1,13.87,CA,1595804997
1018,bereda,43.27,-7.54,64.0,98,0,1.99,ES,1595805263
1019,sanchor,24.76,71.77,87.04,68,74,12.77,IN,1595805265
1020,bradford,53.79,-1.75,59.0,72,84,6.93,GB,1595805163
1021,wanxian,30.8,108.39,72.46,82,34,2.62,CN,1595805269
1022,warrington,53.39,-2.58,61.0,77,40,11.41,GB,1595805272
1023,nelson bay,-32.72,152.15,59.0,93,90,19.46,AU,1595805010
1024,russell,32.35,-85.2,82.4,78,75,4.7,US,1595805276
1025,san borja,-14.82,-66.85,69.46,62,0,0.74,BO,1595805279
1026,arlit,18.74,7.39,95.25,16,41,11.79,NE,1595805281
1027,lithgow,-33.48,150.15,46.99,91,98,1.99,AU,1595805283
1028,zharkent,44.16,80.0,71.64,46,76,2.77,KZ,1595805285
1029,matsubase,32.65,130.67,77.0,94,75,3.36,JP,1595805288
1030,rancho palos verdes,33.74,-118.39,73.99,77,40,20.8,US,1595805290
1031,qaqortoq,60.72,-46.03,50.0,76,74,10.29,GL,1595805292
1032,calama,-22.47,-68.93,66.2,3,0,18.34,CL,1595805295
1033,gondar,12.6,37.47,56.16,97,99,1.32,ET,1595805297
1034,gurupi,-11.73,-49.07,74.82,36,4,3.94,BR,1595805299
1035,zeya,53.75,127.27,69.12,81,82,2.82,RU,1595805301
1036,vega de alatorre,20.03,-96.63,92.01,57,95,21.83,MX,1595805304
1037,ankang,32.68,109.02,69.01,71,0,7.0,CN,1595805306
1038,mendi,-6.18,143.65,61.61,92,99,1.16,PG,1595805308
1039,kalmunai,7.42,81.82,79.57,81,100,6.85,LK,1595805311
1040,kahului,20.89,-156.47,78.8,83,90,9.17,US,1595805100
1041,muroto,33.28,134.15,75.2,100,75,9.17,JP,1595805315
1042,haines junction,60.75,-137.51,58.66,49,21,13.58,CA,1595805317
1043,iwaki,37.05,140.88,75.0,91,100,1.01,JP,1595805319
1044,conceicao da barra,-18.59,-39.73,71.65,82,55,5.77,BR,1595805322
1045,vangaindrano,-23.35,47.6,59.67,85,1,5.3,MG,1595805324
1046,japura,-0.32,102.35,72.72,91,84,2.59,ID,1595805327
1047,kon tum,14.35,108.0,69.91,94,49,0.56,VN,1595805209
1048,tucumcari,35.17,-103.72,87.8,43,40,13.87,US,1595805331
1049,wawina,15.42,-84.43,81.54,87,99,4.27,HN,1595805333
1050,sheffield,53.38,-1.47,60.01,78,100,11.81,GB,1595805336
1051,kankon,15.02,74.02,78.22,86,16,4.5,IN,1595805338
1052,saint-francois,46.42,3.91,62.6,72,15,1.66,FR,1595805340
1053,las vegas,36.17,-115.14,102.99,10,1,8.72,US,1595805313
1054,mackay,-21.15,149.2,68.0,72,0,8.05,AU,1595805345
1055,pafos,34.77,32.42,71.6,73,0,5.82,CY,1595805218
1056,bam,29.11,58.36,84.09,17,0,12.86,IR,1595805349
1057,hornepayne,49.21,-84.77,84.69,52,59,10.31,CA,1595805351
1058,churachandpur,24.33,93.67,69.35,97,99,1.43,IN,1595805354
1059,umm lajj,25.02,37.27,87.3,66,89,20.36,SA,1595805356
1060,eureka,40.8,-124.16,66.99,72,90,5.82,US,1595805274
1061,zhicheng,30.3,111.5,75.0,95,92,1.77,CN,1595805361
1062,cascais,38.7,-9.42,69.01,74,0,21.25,PT,1595805363
1063,manggar,-2.88,108.27,80.49,78,93,14.99,ID,1595805366
1064,fortuna,40.6,-124.16,66.99,80,18,1.99,US,1595805368
1065,naberera,-4.2,36.93,56.52,95,21,10.09,TZ,1595805370
1066,dinguiraye,11.3,-10.72,71.38,94,100,4.29,GN,1595805372
1067,sterling,39.01,-77.43,93.99,38,40,8.05,US,1595805374
1068,businga,3.33,20.88,67.24,97,97,1.14,CD,1595805377
1069,kattivakkam,13.22,80.32,82.4,83,40,5.82,IN,1595805379
1070,shrigonda,18.62,74.68,73.67,87,6,8.01,IN,1595805381
1071,bocaiuva,-17.11,-43.81,71.6,60,20,4.7,BR,1595805384
1072,adeje,28.12,-16.73,73.99,73,0,10.29,ES,1595805386
1073,ewa beach,21.32,-158.01,86.0,62,20,10.29,US,1595805370
1074,dubna,56.73,37.17,57.09,90,46,4.23,RU,1595805391
1075,zhanaozen,43.3,52.8,81.36,20,61,20.36,KZ,1595805393
1076,podolinec,49.26,20.54,62.01,99,100,3.18,SK,1595805395
1077,cacu,-18.56,-51.13,71.89,40,0,2.37,BR,1595805398
1078,la ronge,55.1,-105.28,69.8,64,75,6.93,CA,1595805400
1079,tuensang,26.28,94.83,70.84,82,100,1.54,IN,1595805402
1080,jacareacanga,-6.22,-57.75,79.65,46,0,1.3,BR,1595805404
1081,littleton,39.61,-105.02,75.99,56,75,11.41,US,1595805118
1082,grand-santi,4.25,-54.38,80.51,67,46,1.63,GF,1595805409
1083,jurm,36.86,70.83,66.85,39,0,1.95,AF,1595805411
1084,moindou,-21.69,165.68,78.8,57,8,5.82,NC,1595805413
1085,port-cartier,50.03,-66.87,71.6,56,75,8.05,CA,1595805416
1086,paignton,50.44,-3.57,62.01,9,100,4.0,GB,1595805418
1087,marienburg,54.04,19.03,64.0,100,100,5.12,PL,1595805421
1088,chipinge,-20.19,32.62,46.96,86,0,2.73,ZW,1595805423
1089,bang racham,14.89,100.32,84.0,87,100,5.55,TH,1595805425
1090,puerto leguizamo,-0.19,-74.78,75.11,92,43,0.45,CO,1595805428
1091,kokopo,-4.35,152.26,82.47,68,93,3.36,PG,1595805430
1092,bambanglipuro,-7.95,110.28,71.17,89,25,6.31,ID,1595805432
1093,trat,12.5,102.5,76.24,86,76,1.36,TH,1595805434
1094,bayonet point,28.33,-82.68,87.01,68,46,8.48,US,1595805437
1095,fukue,32.69,128.84,77.0,94,75,8.05,JP,1595805439
1096,pitimbu,-7.47,-34.81,73.4,94,40,5.82,BR,1595805441
1097,batemans bay,-35.72,150.18,57.0,98,100,4.0,AU,1595805443
1098,silver city,32.77,-108.28,64.4,88,90,7.43,US,1595805446
1099,atocha,-20.93,-66.23,36.45,55,0,6.26,BO,1595805429
1100,beira,-19.84,34.84,60.8,100,0,3.36,MZ,1595805450
1101,srivardhan,18.03,73.02,80.01,84,2,5.1,IN,1595805453
1102,pierre,44.37,-100.35,87.8,22,1,13.87,US,1595805212
1103,itarema,-2.92,-39.92,77.72,76,56,12.84,BR,1595805457
1104,pisco,-13.7,-76.22,62.6,77,75,10.29,PE,1595805459
1105,neiafu,-18.65,-173.98,77.0,78,40,12.75,TO,1595805461
1106,kysyl-syr,63.9,122.76,62.83,68,45,2.57,RU,1595805464
1107,lashio,22.93,97.75,68.92,100,99,1.43,MM,1595805466
1108,montorio al vomano,42.58,13.64,70.0,22,39,5.99,IT,1595805468
1109,union,40.63,-74.27,91.99,31,75,11.41,US,1595805470
1110,berea,41.37,-81.85,88.0,48,20,8.05,US,1595805472
1111,korla,41.76,86.15,88.0,71,9,7.87,CN,1595805475
1112,guanica,17.97,-66.91,82.0,83,46,6.53,PR,1595805477
1113,voi,-3.39,38.56,66.9,81,46,11.68,KE,1595805479
1114,lavrentiya,65.58,-171.0,63.72,58,93,17.0,RU,1595805481
1115,puerto madero,14.72,-92.42,80.6,88,75,3.36,MX,1595805484
1116,roma,43.21,-75.46,86.0,62,1,11.41,US,1595805206
1117,nikolayevsk-na-amure,53.14,140.73,69.17,54,37,0.92,RU,1595805488
1118,yabrud,33.97,36.66,77.0,65,0,6.93,SY,1595805491
1119,chumikan,54.72,135.31,57.36,82,26,0.94,RU,1595805493
1120,luanda,-8.84,13.23,71.6,88,40,5.82,AO,1595805463
1121,letlhakeng,-24.09,25.03,48.09,47,0,6.02,BW,1595805498
1122,yanam,16.73,82.22,80.31,85,47,3.94,IN,1595805500
1123,tual,-5.67,132.75,79.05,84,81,25.39,ID,1595805502
1124,calvinia,-31.47,19.78,48.22,63,60,6.8,ZA,1595805504
1125,damaturu,11.75,11.96,72.91,79,100,10.31,NG,1595805506
1126,dzilam gonzalez,21.28,-88.93,88.97,59,100,8.75,MX,1595805510
1127,sioux lookout,50.1,-91.92,78.8,36,20,10.29,CA,1595805512
1128,vestmanna,62.16,-7.17,50.0,87,100,16.11,FO,1595805514
1129,batagay-alyta,67.8,130.41,61.9,41,97,12.39,RU,1595805517
1130,chapleau,47.84,-83.4,82.4,69,75,3.36,CA,1595805519
1131,kondinskoye,59.65,67.41,57.02,80,87,3.71,RU,1595805521
1132,hun,29.13,15.95,75.72,40,0,1.72,LY,1595805523
1133,katsuura,35.13,140.3,82.0,89,60,5.01,JP,1595805526
1134,nongstoin,25.52,91.27,66.74,98,97,0.81,IN,1595805528
1135,alabat,14.1,122.02,83.05,75,82,2.75,PH,1595805530
1136,bhag,29.04,67.82,97.66,41,11,9.78,PK,1595805533
1137,oranjemund,-28.55,16.43,56.62,81,0,14.36,NA,1595805535
1138,ramnagar,29.4,79.12,80.91,65,46,2.28,IN,1595805537
1139,ust-kuyga,70.02,135.6,47.97,80,97,5.08,RU,1595805539
1140,greenville,35.61,-77.37,91.99,55,1,5.82,US,1595805315
1141,mora,11.05,14.14,75.31,77,74,4.74,CM,1595805544
1142,plastun,44.76,136.29,70.16,67,12,1.79,RU,1595805546
1143,maumere,-8.62,122.21,76.39,74,64,6.17,ID,1595805548
1144,kuching,1.55,110.33,75.2,100,20,3.74,MY,1595805551
1145,shingu,33.73,135.98,78.8,94,75,10.29,JP,1595805553
1146,rantoul,40.31,-88.16,88.0,74,1,10.29,US,1595805555
1147,saint-joseph,-21.37,55.62,66.2,77,63,4.7,RE,1595805557
1148,kimamba,-6.78,37.13,64.54,76,23,1.68,TZ,1595805560
1149,ouadda,8.08,22.4,66.67,95,61,5.19,CF,1595805562
1150,huarmey,-10.07,-78.15,63.1,77,2,8.57,PE,1595805564
1151,kupang,-10.17,123.58,75.2,83,20,11.41,ID,1595805566
1152,adelaide,-34.93,138.6,52.0,93,75,5.01,AU,1595805401
1153,rudnogorsk,57.26,103.75,56.17,82,100,1.54,RU,1595805571
1154,marfino,55.7,37.38,64.4,77,77,6.71,RU,1595805573
1155,troitsko-pechorsk,62.71,56.2,61.21,62,71,4.16,RU,1595805575
1156,huambo,-12.78,15.74,51.04,47,0,2.86,AO,1595805578
1157,georgetown,5.41,100.34,78.8,94,20,1.12,MY,1595806044
1158,torbay,47.67,-52.73,57.2,93,90,17.22,CA,1595806047
1159,vaini,-21.2,-175.2,71.6,88,75,10.29,TO,1595806034
1160,skjervoy,70.03,20.97,56.23,79,14,14.85,NO,1595806051
1161,new norfolk,-42.78,147.06,48.0,84,100,1.01,AU,1595806053
1162,mackay,-21.15,149.2,68.0,55,0,8.05,AU,1595806055
1163,praia da vitoria,38.73,-27.07,77.0,83,75,5.59,PT,1595806058
1164,koulikoro,14.0,-7.75,79.11,78,29,7.0,ML,1595806060
1165,atuona,-9.8,-139.03,80.15,72,3,24.32,PF,1595805766
1166,xichang,27.9,102.26,62.2,77,31,1.52,CN,1595806064
1167,kulhudhuffushi,6.62,73.07,81.55,73,85,8.86,MV,1595806067
1168,lorengau,-2.02,147.27,83.28,79,100,7.61,PG,1595806069
1169,zhigansk,66.77,123.37,50.05,66,1,11.43,RU,1595806071
1170,fernandina beach,30.67,-81.46,84.99,83,1,9.17,US,1595806067
1171,touros,-5.2,-35.46,71.6,94,75,3.36,BR,1595806075
1172,warrington,53.39,-2.58,61.0,77,40,11.41,GB,1595805878
1173,darhan,49.49,105.92,61.97,86,26,2.55,MN,1595806080
1174,punta arenas,-53.15,-70.92,35.6,74,20,18.34,CL,1595806082
1175,longyearbyen,78.22,15.64,53.6,87,40,6.93,SJ,1595806085
1176,khatanga,71.97,102.5,42.03,78,100,10.22,RU,1595806087
1177,ancud,-41.87,-73.82,42.01,86,40,6.93,CL,1595806089
1178,nikolskoye,59.7,30.79,55.99,93,1,2.13,RU,1595806092
1179,bluff,-46.6,168.33,39.0,83,0,3.0,NZ,1595805889
1180,hobart,-42.88,147.33,48.0,87,75,3.36,AU,1595806097
1181,arraial do cabo,-22.97,-42.03,69.8,94,75,3.36,BR,1595806040
1182,mataura,-46.19,168.86,39.0,83,0,3.0,NZ,1595806101
1183,bafq,31.61,55.41,83.57,17,0,5.97,IR,1595806104
1184,matay,28.42,30.78,79.95,42,0,14.2,EG,1595806106
1185,ballina,-28.87,153.57,62.6,55,1,25.28,AU,1595806108
1186,camana,-16.62,-72.71,60.01,75,13,3.85,PE,1595806111
1187,busselton,-33.65,115.33,62.01,84,67,19.66,AU,1595806113
1188,tual,-5.67,132.75,79.05,84,81,25.39,ID,1595806115
1189,sitka,57.05,-135.33,57.2,82,90,14.99,US,1595806118
1190,ushuaia,-54.8,-68.3,32.0,94,90,20.8,AR,1595806120
1191,preobrazheniye,42.9,133.91,66.51,85,86,13.11,RU,1595806122
1192,aguimes,27.91,-15.45,72.0,73,75,29.97,ES,1595806125
1193,mantenopolis,-18.86,-41.12,64.87,95,41,6.55,BR,1595806127
1194,east london,-33.02,27.91,60.21,66,92,12.97,ZA,1595806129
1195,cayenne,4.93,-52.33,77.0,100,51,2.24,GF,1595806030
1196,vanderhoof,54.02,-124.02,84.54,31,0,0.27,CA,1595806134
1197,mocajuba,-2.58,-49.51,79.97,57,14,2.15,BR,1595806136
1198,rikitea,-23.12,-134.97,70.36,77,0,19.48,PF,1595806138
1199,pietersburg,-23.9,29.47,44.6,52,0,1.12,ZA,1595806140
1200,cape town,-33.93,18.42,53.01,76,20,8.05,ZA,1595806017
1201,russell,32.35,-85.2,82.4,78,20,3.71,US,1595806145
1202,victoria,22.29,114.16,84.99,79,37,8.99,HK,1595805851
1203,meulaboh,4.14,96.13,75.38,87,100,5.57,ID,1595806149
1204,bethel,41.37,-73.41,86.0,48,1,4.7,US,1595806152
1205,yerbogachen,61.28,108.01,57.56,82,0,5.32,RU,1595806154
1206,luderitz,-26.65,15.16,60.8,67,0,2.24,NA,1595806156
1207,korla,41.76,86.15,88.0,71,9,7.87,CN,1595806159
1208,portland,45.52,-122.68,100.4,13,1,10.29,US,1595805887
1209,bilma,18.69,12.92,94.17,15,17,10.45,NE,1595806163
1210,manicore,-5.81,-61.3,84.2,79,69,2.24,BR,1595806165
1211,geraldton,-28.77,114.6,53.6,71,0,13.87,AU,1595806167
1212,hilo,19.73,-155.09,87.8,58,90,14.99,US,1595806170
1213,kilakarai,9.23,78.78,82.87,70,97,10.29,IN,1595806172
1214,klaksvik,62.23,-6.59,50.0,87,100,16.11,FO,1595805892
1215,dikson,73.51,80.55,37.96,91,88,14.99,RU,1595806177
1216,atherton,53.52,-2.49,61.0,77,97,4.0,GB,1595806179
1217,saskylakh,71.92,114.08,38.23,95,100,17.16,RU,1595806181
1218,shimoda,34.67,138.95,82.4,78,75,12.75,JP,1595806183
1219,sorong,-0.88,131.25,77.4,89,93,9.86,ID,1595806186
1220,port lincoln,-34.73,135.87,55.15,85,38,12.37,AU,1595805899
1221,kodiak,57.79,-152.41,59.0,72,75,8.05,US,1595806190
1222,aktau,43.65,51.2,82.4,34,40,15.66,KZ,1595806192
1223,nanortalik,60.14,-45.24,45.19,83,36,3.49,GL,1595806195
1224,chapais,49.78,-74.85,73.4,83,1,3.36,CA,1595806197
1225,adrar,20.5,-10.07,94.77,27,0,6.67,MR,1595806183
1226,pacific grove,36.62,-121.92,72.0,68,1,13.87,US,1595806179
1227,sulangan,11.14,123.72,84.6,70,99,5.64,PH,1595806204
1228,hermanus,-34.42,19.23,46.99,83,12,1.99,ZA,1595806206
1229,sosnovo-ozerskoye,52.52,111.54,62.74,93,100,10.69,RU,1595806208
1230,preili,56.29,26.72,55.11,85,0,5.39,LV,1595806211
1231,tumpat,6.2,102.17,78.01,94,20,5.82,MY,1595806213
1232,nova esperanca,4.44,-61.12,71.04,90,42,0.22,BR,1595806215
1233,kavieng,-2.57,150.8,83.32,75,100,8.25,PG,1595806039
1234,tadine,-21.55,167.88,75.0,72,13,15.19,NC,1595806220
1235,upernavik,72.79,-56.15,44.87,85,87,6.33,GL,1595806222
1236,goderich,43.75,-81.72,88.0,61,99,5.01,CA,1595806043
1237,belaya gora,68.53,146.42,67.6,55,63,11.03,RU,1595806039
1238,bredasdorp,-34.53,20.04,44.6,81,15,2.24,ZA,1595806229
1239,luena,-11.78,19.92,50.29,60,0,4.09,AO,1595806232
1240,husavik,66.04,-17.34,44.6,75,90,8.05,IS,1595806234
1241,bull savanna,17.89,-77.59,79.84,78,0,9.06,JM,1595806236
1242,albany,42.6,-73.97,89.01,44,52,6.42,US,1595806116
1243,vanavara,60.34,102.28,56.01,81,100,8.23,RU,1595806241
1244,jamestown,42.1,-79.24,81.0,61,1,8.05,US,1595805958
1245,ambunti,-4.24,142.84,83.71,75,62,1.32,PG,1595806245
1246,boca do acre,-8.75,-67.4,75.02,63,5,3.04,BR,1595806247
1247,lebu,-37.62,-73.65,49.05,82,88,8.61,CL,1595806249
1248,avarua,-21.21,-159.78,71.6,88,89,5.82,CK,1595806238
1249,flinders,-34.58,150.86,62.01,88,100,15.99,AU,1595806254
1250,mandiana,10.63,-8.68,70.97,93,100,7.2,GN,1595806256
1251,abdanan,32.99,47.42,87.03,14,0,11.72,IR,1595806258
1252,saint-philippe,-21.36,55.77,66.2,77,62,4.7,RE,1595806036
1253,njombe,-9.33,34.77,51.24,92,93,8.23,TZ,1595806263
1254,dores do indaia,-19.46,-45.6,65.28,61,0,4.5,BR,1595806265
1255,huarmey,-10.07,-78.15,60.73,84,2,7.16,PE,1595806267
1256,cherskiy,68.75,161.3,79.47,38,4,15.55,RU,1595806269
1257,kapaa,22.08,-159.32,82.4,69,90,19.46,US,1595806272
1258,sikeston,36.88,-89.59,91.4,59,40,8.05,US,1595806077
1259,baikunthpur,23.25,82.55,77.76,75,52,2.89,IN,1595806276
1260,labuhan,-6.88,112.21,74.23,83,47,10.69,ID,1595806278
1261,san andres,12.58,-81.7,84.2,79,75,9.17,CO,1595806005
1262,tiksi,71.69,128.87,37.36,93,100,10.27,RU,1595806283
1263,mossendjo,-2.95,12.73,66.43,89,67,4.21,CG,1595806285
1264,krasnoselkup,65.7,82.47,50.49,64,42,14.7,RU,1595806288
1265,sangar,63.92,127.47,65.64,64,82,1.9,RU,1595806290
1266,golubitskaya,45.32,37.28,75.2,88,75,4.47,RU,1595806293
1267,provideniya,64.38,-173.3,50.0,81,40,15.66,RU,1595806295
1268,taoudenni,22.68,-3.98,100.35,8,3,13.71,ML,1595806297
1269,actopan,20.27,-98.93,74.71,49,97,0.96,MX,1595806299
1270,seymchan,62.88,152.43,76.26,40,36,5.26,RU,1595806302
1271,mar del plata,-38.0,-57.56,53.01,76,100,5.82,AR,1595806304
1272,saldanha,-33.01,17.94,48.2,81,0,3.36,ZA,1595806306
1273,lompoc,34.64,-120.46,70.0,64,8,13.87,US,1595806309
1274,dingle,11.0,122.67,81.75,78,32,2.73,PH,1595806311
1275,airai,-8.93,125.41,62.46,68,84,5.32,TL,1595806313
1276,bontang,0.13,117.5,77.41,87,83,9.37,ID,1595806315
1277,carnarvon,-24.87,113.63,50.0,100,0,5.82,AU,1595806318
1278,wilmington,34.23,-77.94,87.8,58,20,11.41,US,1595806129
1279,port alfred,-33.59,26.89,57.24,67,67,8.28,ZA,1595806322
1280,chunoyar,57.45,97.32,60.01,91,75,1.41,RU,1595806325
1281,tuatapere,-46.13,167.68,39.0,83,0,3.0,NZ,1595806327
1282,hithadhoo,-0.6,73.08,82.4,67,97,5.57,MV,1595806329
1283,matara,5.95,80.54,77.99,87,100,13.11,LK,1595806332
1284,waitara,-38.92,174.25,48.0,69,6,5.01,NZ,1595806334
1285,ponta do sol,32.67,-17.1,69.8,68,20,19.46,PT,1595806336
1286,bayir,37.27,28.22,68.0,82,0,4.07,TR,1595806338
1287,dosso,13.05,3.19,82.4,68,6,11.34,NE,1595806341
1288,muromtsevo,56.37,75.24,51.53,78,16,2.66,RU,1595806343
1289,krotoszyn,51.7,17.44,63.0,79,74,6.11,PL,1595806345
1290,imeni poliny osipenko,52.42,136.49,64.35,71,100,3.42,RU,1595806348
1291,port hardy,50.7,-127.42,68.0,68,20,9.17,CA,1595806342
1292,noumea,-22.28,166.46,78.8,57,1,5.82,NC,1595806204
1293,atar,20.52,-13.05,92.05,32,0,13.15,MR,1595806354
1294,perth,-31.93,115.83,60.01,82,0,5.82,AU,1595806299
1295,asau,46.43,26.4,62.01,82,81,3.78,RO,1595806359
1296,yar-sale,66.83,70.83,48.72,76,16,8.66,RU,1595806361
1297,liverpool,53.41,-2.98,61.0,77,40,11.41,GB,1595806255
1298,spasskoye,44.61,132.8,73.45,76,0,2.3,RU,1595806365
1299,mutata,7.24,-76.44,77.09,83,94,1.21,CO,1595806368
1300,eten,-6.91,-79.86,64.4,72,22,21.92,PE,1595806370
1301,boa vista,2.82,-60.67,80.6,78,40,5.82,BR,1595806139
1302,piacabucu,-10.41,-36.43,74.59,78,51,10.71,BR,1595806375
1303,margate,51.38,1.39,63.0,80,94,4.0,GB,1595806377
1304,viedma,-40.81,-63.0,44.01,88,79,5.99,AR,1595806265
1305,salekhard,66.53,66.6,49.05,80,2,8.28,RU,1595806381
1306,broken hill,-31.95,141.43,48.2,87,90,19.46,AU,1595806384
1307,tasiilaq,65.61,-37.64,42.8,87,77,8.05,GL,1595806386
1308,jalu,29.03,21.55,77.79,58,0,11.14,LY,1595806388
1309,bay city,43.59,-83.89,91.4,52,1,11.41,US,1595806341
1310,narsaq,60.92,-46.05,50.0,76,81,10.29,GL,1595806392
1311,puerto ayora,-0.74,-90.35,69.01,88,67,1.99,EC,1595806395
1312,cisarua,-6.65,106.47,70.0,89,73,1.01,ID,1595806397
1313,zhob,31.34,69.45,80.1,52,25,5.82,PK,1595806300
1314,nyimba,-14.56,30.81,55.83,59,5,3.8,ZM,1595806401
1315,baghdad,33.34,44.4,95.0,30,0,5.82,IQ,1595806316
1316,nemuro,43.32,145.57,58.19,83,100,6.24,JP,1595806186
1317,champerico,14.3,-91.92,82.4,74,75,6.93,GT,1595806409
1318,ayan,56.45,138.17,59.13,74,8,8.77,RU,1595806411
1319,knysna,-34.04,23.05,50.0,93,60,3.36,ZA,1595806413
1320,lakatoro,-16.1,167.42,82.4,69,40,9.17,VU,1595806416
1321,ribeira grande,38.52,-28.7,73.27,90,40,4.97,PT,1595806418
1322,bengkulu,-3.8,102.27,74.89,83,74,4.05,ID,1595806266
1323,cabo san lucas,22.89,-109.91,89.6,49,5,8.05,MX,1595806417
1324,barstow,34.9,-117.02,102.2,10,1,6.93,US,1595806425
1325,virginia beach,36.85,-75.98,86.0,83,75,11.41,US,1595806170
1326,norman wells,65.28,-126.83,71.6,49,75,10.29,CA,1595806429
1327,port elizabeth,-33.92,25.57,55.4,87,75,10.29,ZA,1595806132
1328,terrace,54.52,-128.6,73.4,60,75,9.17,CA,1595806433
1329,skelleftea,64.75,20.95,55.4,87,14,2.24,SE,1595806436
1330,qaanaaq,77.48,-69.36,43.47,62,0,3.36,GL,1595806438
1331,zhangye,38.93,100.45,76.24,20,83,10.2,CN,1595806440
1332,vangaindrano,-23.35,47.6,59.47,85,0,4.9,MG,1595806442
1333,eskisehir,39.78,30.52,64.4,88,0,6.93,TR,1595806352
1334,bara,10.37,10.73,73.44,92,100,6.13,NG,1595806447
1335,hasaki,35.73,140.83,84.2,74,75,9.17,JP,1595806449
1336,nuuk,64.18,-51.72,53.6,71,67,6.93,GL,1595806451
1337,sambava,-14.27,50.17,68.43,88,100,15.05,MG,1595806453
1338,komsomolskiy,40.43,71.72,71.6,64,75,4.7,UZ,1595806455
1339,kruisfontein,-34.0,24.73,52.29,71,73,1.86,ZA,1595806458
1340,barrow,71.29,-156.79,46.4,93,90,18.34,US,1595806460
1341,altamira,-3.2,-52.21,77.56,55,0,1.79,BR,1595806462
1342,besikduzu,41.05,39.23,77.0,73,40,1.12,TR,1595806464
1343,lavrentiya,65.58,-171.0,63.99,60,94,16.8,RU,1595806331
1344,talnakh,69.49,88.4,44.6,93,75,15.66,RU,1595806469
1345,itarema,-2.92,-39.92,76.98,80,63,13.18,BR,1595806333
1346,lufilufi,-13.87,-171.6,80.87,81,27,21.16,WS,1595806473
1347,san patricio,19.22,-104.7,87.8,79,75,11.41,MX,1595806476
1348,alappuzha,9.49,76.33,79.12,84,74,5.84,IN,1595806478
1349,khartoum,15.55,32.53,84.2,58,100,18.34,SD,1595806480
1350,freeport,40.66,-73.58,91.4,58,1,4.7,US,1595806325
1351,iwanai,42.97,140.51,70.27,76,100,4.18,JP,1595806485
1352,yellowknife,62.46,-114.35,75.99,46,40,12.75,CA,1595806289
1353,udachnyy,66.42,112.4,35.6,93,90,6.71,RU,1595806489
1354,thompson,55.74,-97.86,62.6,77,75,8.05,CA,1595806480
1355,jieshi,22.81,115.83,85.23,77,6,11.88,CN,1595806494
1356,saint paul,44.94,-93.09,86.0,62,1,11.41,US,1595806200
1357,la verne,34.1,-117.77,93.2,33,1,11.41,US,1595806498
1358,hambantota,6.12,81.12,79.63,81,100,18.12,LK,1595806501
1359,zhanaozen,43.3,52.8,81.64,20,64,20.78,KZ,1595806504
1360,velyka bilozerka,47.28,34.71,77.0,43,99,6.31,UA,1595806506
1361,tyazhinskiy,56.12,88.52,54.54,95,83,9.4,RU,1595806508
1362,sicamous,50.83,-118.99,86.0,30,0,1.01,CA,1595806510
1363,pevek,69.7,170.31,53.62,68,87,6.26,RU,1595806513
1364,general pico,-35.66,-63.76,51.08,49,85,4.74,AR,1595806515
1365,dubasari,47.26,29.16,69.8,64,80,6.93,MD,1595806518
1366,praxedis guerrero,31.37,-106.02,95.0,31,75,13.87,MX,1595806520
1367,ustrzyki dolne,49.43,22.59,62.01,92,81,7.0,PL,1595806522
1368,mahebourg,-20.41,57.7,69.8,77,75,14.99,MU,1595806524
1369,codrington,-38.27,141.97,52.72,77,58,16.4,AU,1595806526
1370,livingstonia,-10.61,34.11,55.54,84,55,3.44,MW,1595806529
1371,muriti,-1.98,32.92,72.9,60,0,10.65,TZ,1595806531
1372,hobyo,5.35,48.53,77.38,76,12,18.99,SO,1595806533
1373,bulgan,48.81,103.53,59.32,85,28,4.97,MN,1595806535
1374,half moon bay,37.46,-122.43,77.0,47,5,10.29,US,1595806538
1375,vostochnyy,55.82,37.87,63.0,82,65,4.47,RU,1595806540
1376,kahului,20.89,-156.47,80.6,74,90,9.17,US,1595806473
1377,san marcos de colon,13.43,-86.8,70.09,97,56,1.34,HN,1595806544
1378,nouadhibou,20.93,-17.03,69.8,88,0,23.04,MR,1595806546
1379,college,64.86,-147.8,68.0,63,75,4.7,US,1595806550
1380,chabahar,25.29,60.64,84.45,73,98,3.44,IR,1595806552
1381,ketchikan,55.34,-131.65,57.2,100,90,11.41,US,1595806554
1382,sisimiut,66.94,-53.67,46.18,88,100,7.25,GL,1595806556
1383,kortkeros,61.81,51.58,53.6,100,28,2.24,RU,1595806558
1384,ugljevik,44.66,19.02,66.99,93,20,1.12,BA,1595806561
1385,stralsund,54.31,13.08,59.0,80,24,6.91,DE,1595806563
1386,ixtapa,20.7,-105.2,87.01,74,40,10.29,MX,1595806565
1387,sao jose da coroa grande,-8.9,-35.15,75.22,77,83,13.09,BR,1595806567
1388,lakes entrance,-37.88,147.98,52.0,98,100,6.55,AU,1595806569
1389,katsuura,35.13,140.3,84.0,89,67,4.0,JP,1595806572
1390,palmer,42.16,-72.33,87.8,43,75,8.05,US,1595806574
1391,mount gambier,-37.83,140.77,51.8,76,75,10.29,AU,1595806576
1392,butaritari,3.07,172.79,83.64,74,22,11.3,KI,1595806579
1393,faanui,-16.48,-151.75,79.2,80,54,18.19,PF,1595806581
1394,saint-pierre,-21.34,55.48,66.2,77,58,4.7,RE,1595806583
1395,nelson bay,-32.72,152.15,60.01,93,90,16.11,AU,1595806585
1396,cesme,38.32,26.31,69.8,64,0,10.22,TR,1595806588
1397,tuktoyaktuk,69.45,-133.04,68.0,56,75,3.36,CA,1595806590
1398,aswan,24.09,32.91,89.35,13,0,10.51,EG,1595806592
1399,castro,-24.79,-50.01,55.89,93,98,4.27,BR,1595806594
1400,severo-kurilsk,50.68,156.12,52.66,87,99,16.67,RU,1595806597
1401,nabire,-3.37,135.48,82.47,73,57,1.95,ID,1595806599
1402,mount isa,-20.73,139.5,59.0,29,0,9.17,AU,1595806601
1403,campbell river,50.02,-125.24,84.2,32,5,5.82,CA,1595806485
1404,maridi,4.92,29.47,65.86,97,77,3.58,SS,1595806606
1405,vila franca do campo,37.72,-25.43,69.8,88,40,3.36,PT,1595806608
1406,ahuimanu,21.44,-157.84,82.4,69,75,12.75,US,1595806610
1407,southbridge,42.08,-72.03,82.99,53,36,6.29,US,1595806613
1408,zhezkazgan,47.8,67.71,68.65,38,52,6.8,KZ,1595806615
1409,mehkar,20.15,76.57,76.59,82,4,5.73,IN,1595806617
1410,souillac,-20.52,57.52,69.8,77,75,14.99,MU,1595806620
1411,george,-33.96,22.46,50.0,93,81,3.36,ZA,1595806622
1412,pingliang,35.54,106.69,76.64,31,0,3.89,CN,1595806624
1413,ranot,7.78,100.32,80.55,79,96,5.84,TH,1595806626
1414,sinop,41.77,34.87,64.96,62,0,1.57,TR,1595806355
1415,shurugwi,-19.67,30.01,41.34,73,0,1.7,ZW,1595806631
1416,kommunar,59.62,30.39,53.6,93,0,3.13,RU,1595806633
1417,kavaratti,10.57,72.64,81.28,81,54,11.52,IN,1595806635
1418,kailua,21.4,-157.74,82.4,69,75,12.75,US,1595806637
1419,katobu,-4.94,122.53,78.64,77,78,5.77,ID,1595806639
1420,metapan,14.33,-89.45,84.2,66,20,2.91,SV,1595806642
1421,karratha,-20.74,116.85,64.53,30,47,14.03,AU,1595806420
1422,gelemso,8.82,40.52,59.32,87,44,3.47,ET,1595806646
1423,erenhot,43.65,111.98,72.93,62,83,9.13,CN,1595806648
1424,hami,42.8,93.45,82.31,20,0,16.4,CN,1595806650
1425,kloulklubed,7.04,134.26,82.4,78,90,8.05,PW,1595806653
1426,kosh-agach,50.0,88.67,52.68,67,0,0.92,RU,1595806655
1427,chuy,-33.7,-53.46,47.21,88,92,7.92,UY,1595806657
1428,abu dhabi,24.47,54.37,93.2,59,84,3.36,AE,1595806369
1429,xuanhua,40.61,115.04,67.89,77,90,6.67,CN,1595806662
1430,port blair,11.67,92.75,81.75,77,100,0.87,IN,1595806664
1431,nueve de julio,-35.44,-60.88,53.01,59,75,4.0,AR,1595806666
1432,tromso,69.65,18.96,55.4,71,8,25.28,NO,1595806668
1433,taltal,-25.4,-70.48,58.28,67,15,3.71,CL,1595806671
1434,guerrero negro,27.98,-114.06,74.91,64,0,20.65,MX,1595806673
1435,hualmay,-11.1,-77.61,60.49,83,6,6.51,PE,1595806675
1436,ostrovnoy,68.05,39.51,57.54,81,89,3.13,RU,1595806678
1437,kaiyuan,23.7,103.3,63.66,86,100,2.08,CN,1595806680
1438,zig,40.13,-92.77,89.6,62,1,8.05,US,1595806682
1439,loandjili,-4.76,11.86,71.6,88,0,1.12,CG,1595806685
1440,oranjemund,-28.55,16.43,56.23,83,0,13.82,NA,1595806687
1441,porto tolle,44.95,12.32,73.0,91,0,4.52,IT,1595806689
1442,kendari,-3.94,122.5,76.24,87,64,3.24,ID,1595806441
1443,yumbo,3.58,-76.49,80.6,57,40,10.29,CO,1595806693
1444,kostyantynivka,48.53,37.71,68.72,48,80,10.22,UA,1595806696
1445,aquidauana,-20.47,-55.79,72.21,48,97,2.73,BR,1595806698
1446,chokurdakh,70.63,147.92,42.78,75,99,13.6,RU,1595806700
1447,sur,22.57,59.53,87.12,62,91,13.02,OM,1595806702
1448,grindavik,63.84,-22.43,50.0,81,78,10.29,IS,1595806704
1449,necochea,-38.55,-58.74,50.0,75,100,5.99,AR,1595806707
1450,ahipara,-35.17,173.17,56.61,57,0,4.81,NZ,1595806709
1451,alta floresta,-9.88,-56.09,75.9,41,0,4.27,BR,1595806711
1452,sunrise manor,36.21,-115.07,104.0,8,1,4.7,US,1595806427
1453,batemans bay,-35.72,150.18,55.99,98,100,7.0,AU,1595806715
1454,san quintin,30.48,-115.95,72.95,69,3,15.41,MX,1595806718
1455,synya,65.37,58.04,53.73,74,0,5.68,RU,1595806720
1456,paita,-5.09,-81.11,64.15,81,30,15.84,PE,1595806722
1457,poum,-20.23,164.02,73.92,78,0,13.02,NC,1595806725
1458,vizinga,61.07,50.1,55.24,82,41,2.17,RU,1595806727
1459,buraydah,26.33,43.98,93.2,34,0,5.82,SA,1595806729
1460,tukrah,32.53,20.58,76.26,83,0,10.2,LY,1595806731
1461,avera,33.19,-82.53,87.8,62,1,5.82,US,1595806733
1462,qaqortoq,60.72,-46.03,50.0,76,65,10.29,GL,1595806736
1463,sept-iles,50.2,-66.38,69.8,68,75,3.36,CA,1595806737
1464,itoman,26.12,127.67,84.2,83,75,13.87,JP,1595806740
1465,roald,62.58,6.13,59.0,93,100,18.34,NO,1595806742
1466,dutlwe,-23.98,23.9,45.18,55,0,5.77,BW,1595806745
1467,porto novo,6.5,2.6,75.6,84,26,9.08,BJ,1595806747
1468,ocos,14.51,-92.19,82.4,88,75,3.36,GT,1595806749
1469,coihaique,-45.58,-72.07,33.8,64,40,4.7,CL,1595806751
1470,atikokan,48.76,-91.62,75.63,42,5,9.8,CA,1595806754
1471,pimentel,-6.84,-79.93,64.4,72,24,21.92,PE,1595806756
1472,tucupita,9.06,-62.05,77.67,90,60,4.54,VE,1595806758
1473,yulara,-25.24,130.99,48.2,66,0,4.7,AU,1595806761
1474,shingu,33.73,135.98,78.8,94,75,10.29,JP,1595806763
1475,vestmannaeyjar,63.44,-20.27,51.69,87,100,4.92,IS,1595806765
1476,saint-augustin,51.23,-58.65,56.12,91,29,7.99,CA,1595806767
1477,mariana,-20.38,-43.42,61.7,79,10,0.49,BR,1595806770
1478,bilibino,68.05,166.44,80.47,26,6,25.72,RU,1595806772
1479,pangnirtung,66.15,-65.71,53.4,65,100,3.27,CA,1595806774
1480,bahia blanca,-38.72,-62.27,51.26,50,83,13.6,AR,1595806776
1481,yurga,55.72,84.89,54.12,91,76,3.33,RU,1595806779
1482,hays,30.05,-98.03,84.0,70,18,3.0,US,1595806781
1483,faya,18.39,42.45,66.2,77,40,8.05,SA,1595806783
1484,plettenberg bay,-34.05,23.37,53.73,68,48,0.76,ZA,1595806786
1485,elk city,35.41,-99.4,93.2,38,40,13.87,US,1595806788
1486,leningradskiy,69.38,178.42,69.96,43,74,13.47,RU,1595806790
1487,micomeseng,2.15,10.62,68.38,99,99,1.77,GQ,1595806792
1488,kyzyl-suu,42.34,78.0,60.76,72,100,2.95,KG,1595806794
1489,dalvik,65.97,-18.53,44.6,75,90,8.05,IS,1595806797
1490,nome,64.5,-165.41,62.01,76,1,16.11,US,1595806799
1491,metu,8.3,35.58,57.36,99,100,1.81,ET,1595806801
1492,constitucion,-35.33,-72.42,51.39,88,100,7.99,CL,1595806803
1493,mulanje,-16.03,35.5,56.39,88,3,4.68,MW,1595806805
1494,gat,31.61,34.76,81.0,68,18,5.03,IL,1595806808
1495,hamilton,39.18,-84.53,91.0,55,1,6.93,US,1595806810
1496,odienne,9.51,-7.57,70.16,95,100,6.31,CI,1595806812
1497,catia la mar,10.6,-67.03,71.01,74,95,6.93,VE,1595806814
1498,onokhoy,51.93,108.07,60.8,93,90,2.24,RU,1595806817
1499,dunedin,-45.87,170.5,51.01,65,0,14.0,NZ,1595806617
1500,kjollefjord,70.95,27.35,59.04,70,3,9.48,NO,1595806821
1501,ayr,55.46,-4.63,55.4,82,40,7.09,GB,1595806683
1502,padang,-0.95,100.35,75.2,94,40,1.12,ID,1595806826
1503,tripoli,32.88,13.19,78.58,67,0,8.32,LY,1595806828
1504,brownsville,25.9,-97.5,84.2,89,90,18.34,US,1595806616
1505,orzu,37.56,68.82,73.4,60,20,2.24,TJ,1595806833
1506,siuna,13.73,-84.78,76.1,90,98,3.71,NI,1595806835
1507,helong,42.54,129.0,70.84,74,96,3.47,CN,1595806837
1508,kondinskoye,59.65,67.41,56.61,83,85,4.05,RU,1595806839
1509,gursahaiganj,27.12,79.72,89.69,53,63,6.4,IN,1595806842
1510,el cope,8.62,-80.6,75.0,89,100,2.86,PA,1595806844
1511,axim,4.87,-2.24,74.46,86,65,8.46,GH,1595806846
1512,rovaniemi,66.5,25.72,53.6,93,0,5.82,FI,1595806848
1513,qovlar,40.95,45.73,77.0,69,40,4.7,AZ,1595806850
1514,arman,59.7,150.17,63.39,57,49,7.58,RU,1595806853
1515,deputatskiy,69.3,139.9,55.13,74,56,5.61,RU,1595806855
1516,mahibadhoo,3.78,72.97,82.31,68,98,6.24,MV,1595806857
1517,batangafo,7.3,18.28,69.51,98,93,1.3,CF,1595806859
1518,zhuhai,22.28,113.57,89.01,83,20,8.05,CN,1595806861
1519,alekseyevsk,57.84,108.35,65.07,55,100,5.46,RU,1595806864
1520,qasigiannguit,68.82,-51.19,44.6,93,100,8.05,GL,1595806866
1521,chumikan,54.72,135.31,60.3,76,23,0.45,RU,1595806868
1522,saraland,30.82,-88.07,78.01,92,100,2.77,US,1595806870
1523,la roche-sur-yon,46.67,-1.43,55.4,93,0,2.24,FR,1595806872
1524,mwinilunga,-11.74,24.43,50.11,74,19,5.37,ZM,1595806875
1525,phan thiet,10.93,108.1,80.2,78,11,3.38,VN,1595806844
1526,tombouctou,20.0,-3.0,97.77,29,91,8.97,ML,1595806879
1527,myre,69.1,15.95,60.8,63,8,12.75,NO,1595806881
1528,jacareacanga,-6.22,-57.75,77.67,49,0,2.01,BR,1595806884
1529,el tarra,8.58,-73.09,76.42,81,68,0.85,CO,1595806886
1530,kaitangata,-46.28,169.85,50.0,66,0,4.0,NZ,1595806888
1531,bulaevo,54.91,70.44,52.83,93,72,5.91,KZ,1595806890
1532,barcelona,41.39,2.16,78.01,83,20,3.36,ES,1595806745
1533,bandarbeyla,9.49,50.81,80.56,62,0,21.23,SO,1595806895
1534,athabasca,54.72,-113.29,75.81,55,35,4.56,CA,1595806897
1535,surok,56.45,48.12,59.0,87,20,4.47,RU,1595806899
1536,muyezerskiy,63.93,31.65,51.12,87,0,2.89,RU,1595806901
1537,veraval,20.9,70.37,82.8,83,2,9.22,IN,1595806621
1538,iracoubo,5.48,-53.2,79.32,84,1,9.17,GF,1595806906
1539,saint anthony,45.02,-93.22,86.0,62,1,11.41,US,1595806908
1540,caravelas,-17.71,-39.25,70.61,85,14,5.19,BR,1595806910
1541,aklavik,68.22,-135.01,69.8,52,75,4.7,CA,1595806913
1542,aksu,41.12,80.26,77.29,39,86,5.28,CN,1595806915
1543,faratsiho,-19.4,46.95,40.33,84,4,4.34,MG,1595806917
1544,diphu,25.83,93.43,76.53,95,95,0.72,IN,1595806919
1545,karasjok,69.47,25.51,57.2,87,22,21.92,NO,1595806922
1546,clyde river,70.47,-68.59,46.4,81,1,6.93,CA,1595806924
1547,kasongo,-4.45,26.67,71.64,35,19,3.27,CD,1595806926
1548,ilulissat,69.22,-51.1,44.6,93,100,8.05,GL,1595806929
1549,fortuna,40.6,-124.16,62.01,78,19,5.01,US,1595806931
1550,burns lake,54.23,-125.75,82.11,28,0,8.86,CA,1595806933
1551,diego de almagro,-26.37,-70.05,51.15,54,0,2.24,CL,1595806935
1552,rapid valley,44.06,-103.15,82.99,28,1,8.05,US,1595806937
1553,tezu,27.92,96.17,78.33,74,51,1.83,IN,1595806940
1554,turukhansk,65.82,87.98,52.12,71,68,15.79,RU,1595806942
1555,kalmar,56.66,16.36,61.0,100,66,2.24,SE,1595806944
1556,ola,59.58,151.28,59.41,76,17,9.91,RU,1595806947
1557,kargasok,59.06,80.86,54.73,86,99,5.68,RU,1595806949
1558,sao francisco,-15.95,-44.86,71.06,61,2,7.81,BR,1595806951
1559,alofi,-19.06,-169.92,75.2,88,47,13.87,NU,1595806788
1560,koppang,61.57,11.06,51.01,97,100,5.99,NO,1595806955
1561,conde,-7.26,-34.91,73.4,94,40,5.82,BR,1595806958
1562,juan lacaze,-34.43,-57.44,50.0,75,5,12.21,UY,1595806960
1563,luwuk,-0.95,122.79,77.61,78,97,7.07,ID,1595806962
1564,pisco,-13.7,-76.22,62.6,77,75,10.29,PE,1595806964
1565,kindu,-2.95,25.95,71.29,43,0,0.92,CD,1595806967
1566,dubai,25.26,55.3,95.0,59,66,8.05,AE,1595806896
1567,mets parni,40.83,44.11,62.6,82,7,4.7,AM,1595806971
1568,portlethen,57.05,-2.13,50.0,76,16,5.82,GB,1595806973
1569,panambi,-28.29,-53.5,52.3,83,97,6.02,BR,1595806976
1570,tateyama,34.98,139.87,82.4,78,75,12.75,JP,1595806978
1571,vaitape,-16.52,-151.75,79.99,79,54,18.21,PF,1595806980
1572,san juan,-31.54,-68.54,58.03,31,28,11.36,AR,1595806982
1573,biak,-0.91,122.88,77.18,80,98,7.94,ID,1595806985
1574,panzhihua,26.59,101.71,61.0,85,84,1.97,CN,1595806987
1575,okha,53.57,142.95,61.0,74,5,7.56,RU,1595806989
1576,isangel,-19.55,169.27,80.6,65,30,5.82,VU,1595806991
1577,russkaya polyana,49.42,31.92,65.75,80,100,5.88,UA,1595806993
1578,tame,6.46,-71.73,73.11,93,86,0.11,CO,1595806996
1579,sao filipe,14.9,-24.5,76.44,83,86,7.99,CV,1595806998
1580,kenitra,34.26,-6.58,75.2,83,40,11.41,MA,1595807000
1581,brody,50.09,25.15,62.78,91,86,1.52,UA,1595807002
1582,vila velha,-20.33,-40.29,71.6,94,40,3.36,BR,1595807004
1583,saint george,37.1,-113.58,102.99,10,1,9.17,US,1595806727
1584,ebenthal,46.61,14.36,64.4,82,90,4.7,AT,1595807009
1585,aykhal,66.0,111.5,35.6,93,90,6.71,RU,1595807012
1586,evensk,61.95,159.23,55.31,83,42,12.01,RU,1595807014
1587,areosa,41.72,-8.86,64.99,87,0,8.05,PT,1595807016
1588,lumut,4.23,100.63,78.8,88,40,4.7,MY,1595807018
1589,cidreira,-30.18,-50.21,58.01,85,100,14.03,BR,1595807020
1590,berlevag,70.86,29.09,58.23,73,1,8.72,NO,1595807023
1591,celestun,20.87,-90.4,90.3,58,95,13.33,MX,1595807025
1592,astoria,46.19,-123.83,87.01,48,1,12.75,US,1595806809
1593,dortyol,36.86,36.23,80.01,86,0,1.43,TR,1595807029
1594,sao joao da barra,-21.64,-41.05,72.54,87,32,12.28,BR,1595807031
1595,urumqi,43.8,87.6,77.0,33,37,6.71,CN,1595807034
1596,rincon,32.3,-81.24,87.8,62,75,8.05,US,1595807036
1597,shetpe,44.17,52.12,76.62,23,60,14.65,KZ,1595807038
1598,pemangkat,1.17,108.97,76.77,88,36,5.84,ID,1595807040
1599,touho,-20.78,165.23,73.27,79,47,13.42,NC,1595807043
1600,karasuk,53.74,78.04,58.93,80,84,1.32,RU,1595807045
1601,mopipi,-21.18,24.88,48.47,50,0,6.22,BW,1595807047
1602,maple creek,49.92,-109.48,79.18,27,33,10.98,CA,1595807049
1603,nhulunbuy,-12.23,136.77,78.8,54,40,16.11,AU,1595807052
1604,steamboat springs,40.48,-106.83,84.2,21,1,4.7,US,1595807054
1605,inhambane,-23.86,35.38,63.01,77,0,6.13,MZ,1595807056
1606,waki,34.07,134.15,84.0,94,75,4.7,JP,1595807059
1607,roma,43.21,-75.46,84.2,62,1,11.41,US,1595807061
1608,millau,44.08,2.92,66.99,72,0,3.36,FR,1595807063
1609,parauna,-16.95,-50.45,69.17,42,0,2.71,BR,1595806862
1610,sibu,2.3,111.82,75.2,94,40,5.82,MY,1595807068
1611,chernyshevskiy,63.01,112.47,55.83,65,0,4.29,RU,1595807070
1612,comodoro rivadavia,-45.87,-67.5,33.8,74,40,8.05,AR,1595807047
1613,neya,58.3,43.87,53.91,84,0,3.96,RU,1595807075
1614,alice springs,-23.7,133.88,48.2,70,0,2.24,AU,1595806835
1615,mayo,38.89,-76.51,91.4,43,1,5.82,US,1595807079
1616,alta,69.97,23.27,57.2,82,0,10.29,NO,1595807081
1617,vianden,49.94,6.21,57.99,88,86,1.23,LU,1595807083
1618,rawson,-43.3,-65.1,42.39,79,100,8.75,AR,1595807086
1619,salina cruz,16.17,-95.2,85.12,69,78,7.58,MX,1595806899
1620,ca mau,9.18,105.15,80.98,81,53,1.25,VN,1595807090
1621,marsa matruh,31.35,27.25,75.2,83,0,8.1,EG,1595807092
1622,camacha,33.08,-16.33,69.8,73,40,10.29,PT,1595807097
1623,micheweni,-4.97,39.83,75.76,81,28,15.12,TZ,1595807100
1624,ponta delgada,37.73,-25.67,69.8,88,40,3.36,PT,1595807103
1625,andenes,69.31,16.12,60.8,63,4,12.75,NO,1595807105
1626,san ramon de la nueva oran,-23.13,-64.33,50.0,68,0,2.55,AR,1595807107
1627,bastia,42.67,9.33,73.99,83,0,3.36,FR,1595807109
1628,smithers,54.78,-127.17,77.0,44,40,9.17,CA,1595807112
1629,namatanai,-3.67,152.43,84.76,68,100,6.4,PG,1595807114
1630,kyabe,9.45,18.94,70.63,97,74,5.14,TD,1595807116
1631,makubetsu,45.37,141.82,66.2,82,40,8.05,JP,1595807118
1632,yabelo,4.88,38.08,61.92,72,81,5.06,ET,1595807120
1633,ikom,5.97,8.71,71.82,97,92,1.39,NG,1595807123
1634,la ronge,55.1,-105.28,71.6,56,75,13.87,CA,1595807125
1635,dzerzhinsk,56.24,43.46,61.0,100,0,1.99,RU,1595807127
1636,policoro,40.21,16.67,68.0,75,0,1.99,IT,1595807129
1637,wajir,1.75,40.06,72.55,71,0,15.68,KE,1595807131
1638,murray bridge,-35.12,139.27,53.01,95,17,13.62,AU,1595807134
1639,langxiang,46.95,128.88,79.07,60,0,3.33,CN,1595807136
1640,bambous virieux,-20.34,57.76,70.0,77,75,14.99,MU,1595807138
1641,magistralnyy,56.17,107.45,64.98,55,100,1.61,RU,1595807141
1642,kulgam,33.65,75.02,63.81,81,44,1.21,IN,1595807143
1643,pangai,-19.8,-174.35,78.8,69,20,16.11,TO,1595807145
1644,cockburn town,21.46,-71.14,82.71,81,0,16.33,TC,1595807147
1645,fukue,32.69,128.84,78.8,94,75,11.41,JP,1595807149
1646,yumen,40.28,97.2,75.7,19,0,4.23,CN,1595807152
1647,nurota,40.56,65.69,80.6,28,4,6.93,UZ,1595807154
1648,banda aceh,5.56,95.32,79.38,76,100,6.22,ID,1595807156
1649,ukiah,39.15,-123.21,98.6,22,1,10.29,US,1595807158
1650,kryvyy rih,47.92,33.35,73.4,43,98,11.18,UA,1595807161
1651,yarada,17.65,83.27,80.6,94,40,4.7,IN,1595807163
1652,kalmunai,7.42,81.82,79.32,80,100,4.83,LK,1595807165
1653,kidal,18.44,1.41,91.15,36,88,11.65,ML,1595807168
1654,nizhniy kuranakh,58.84,125.49,74.5,63,96,3.13,RU,1595807171
1655,beruwala,6.48,79.98,79.38,86,100,9.51,LK,1595807173
1656,vermillion,42.78,-96.93,82.4,69,1,11.41,US,1595807175
1657,dauriya,49.93,116.87,73.89,65,15,11.59,RU,1595807177
1658,tevaitoa,-16.78,-151.5,79.81,79,52,19.24,PF,1595807180
1659,mujiayingzi,42.12,118.78,69.57,66,89,4.97,CN,1595807182
1660,rundu,-17.93,19.77,51.3,46,0,7.29,NA,1595807184
1661,defiance,41.33,-84.45,91.4,49,1,8.05,US,1595807187
1662,oranjestad,12.52,-70.03,82.4,83,20,21.92,AW,1595806990
1663,turinsk,58.05,63.7,51.4,81,65,3.06,RU,1595807191
1664,bimbo,4.26,18.42,71.6,94,97,0.67,CF,1595807193
1665,niagara falls,43.1,-79.07,84.2,54,1,16.11,CA,1595807026
1666,cumpas,29.98,-109.78,96.82,30,46,2.53,MX,1595807198
1667,broome,42.25,-75.83,82.99,54,20,8.05,US,1595807200
1668,high prairie,55.43,-116.49,75.15,54,0,3.58,CA,1595807202
1669,rio grande,-32.03,-52.1,50.0,84,98,1.01,BR,1595807204
1670,mildura,-34.2,142.15,50.0,100,90,9.17,AU,1595807207
1671,yepifan,53.83,38.55,59.05,74,13,6.44,RU,1595807209
1672,pinawa,50.15,-95.88,68.41,68,35,10.49,CA,1595807211
1673,thonon-les-bains,46.25,6.5,66.99,68,13,2.24,FR,1595807213
1674,iralaya,15.0,-83.23,86.0,74,75,10.29,HN,1595807215
1675,malpe,13.35,74.72,77.0,94,40,4.7,IN,1595807218
1676,mayahi,13.96,7.67,87.04,52,53,13.96,NE,1595807220
1677,khandyga,62.67,135.6,72.46,54,32,2.73,RU,1595807222
1678,morro bay,35.37,-120.85,78.01,50,1,13.87,US,1595807224
1679,kudahuvadhoo,2.67,72.89,82.33,70,72,5.19,MV,1595807227
1680,tashtagol,52.77,87.89,55.29,93,77,2.21,RU,1595807229
1681,merritt island,28.54,-80.67,84.2,79,40,8.05,US,1595807231
1682,uvat,59.14,68.9,53.76,90,43,3.36,RU,1595807233
1683,urucara,-2.54,-57.76,81.25,53,67,1.36,BR,1595807235
1684,sioux lookout,50.1,-91.92,78.8,36,20,9.17,CA,1595807238
1685,carutapera,-1.2,-46.02,75.58,91,5,4.85,BR,1595807240
1686,kuliyapitiya,7.47,80.04,77.0,94,20,4.61,LK,1595807242
1687,grand gaube,-20.01,57.66,70.0,69,99,8.99,MU,1595807244
1688,vardo,70.37,31.11,58.73,74,40,12.33,NO,1595807242
1689,buarcos,40.17,-8.88,63.0,93,0,6.93,PT,1595807249
1690,dakar,14.69,-17.44,80.6,78,20,9.17,SN,1595807093
1691,denpasar,-8.65,115.22,78.8,100,40,11.41,ID,1595806972
1692,kirakira,-10.45,161.92,83.23,75,57,12.41,SB,1595807256
1693,beloha,-25.17,45.05,57.67,53,0,5.97,MG,1595807258
1694,casma,-41.01,-73.12,44.6,75,33,4.7,CL,1595807260
1695,sturgis,41.8,-85.42,89.6,70,40,9.17,US,1595807015
1696,kalyazin,57.24,37.84,55.8,93,4,5.5,RU,1595807265
1697,antalaha,-14.9,50.28,68.23,89,100,9.93,MG,1595807267
1698,cordoba,-31.41,-64.18,61.0,45,23,4.7,AR,1595807117
1699,cedar city,37.68,-113.06,91.4,11,1,2.17,US,1595807057
1700,ormara,25.21,64.64,84.07,82,96,13.22,PK,1595807274
1701,varhaug,58.61,5.65,55.0,98,21,9.37,NO,1595807276
1702,emilio carranza,19.97,-96.61,88.83,64,97,19.73,MX,1595807279
1703,pauini,-7.71,-66.98,77.67,61,5,1.68,BR,1595807281
1704,zaria,11.11,7.72,71.96,87,80,6.96,NG,1595807283
1705,agadez,19.75,10.25,89.35,12,25,17.58,NE,1595807286
1706,khipro,25.83,69.38,89.1,61,0,8.9,PK,1595807288
1707,fort nelson,58.81,-122.7,78.8,44,20,4.7,CA,1595807232
1708,hofn,64.25,-15.21,48.36,68,100,9.01,IS,1595807292
1709,tarko-sale,64.92,77.78,48.0,82,37,14.56,RU,1595807295
1710,acari,-15.43,-74.62,60.91,65,2,3.51,PE,1595807298
1711,black river,18.03,-77.85,87.8,70,20,13.87,JM,1595807300
1712,launceston,-41.45,147.17,50.0,93,90,11.41,AU,1595807302
1713,charyshskoye,51.4,83.56,55.18,84,19,3.69,RU,1595807304
