,City,Lat,Lng,Temperature,Humidity,Cloudiness,Wind Speed,Country,Date
0,georgetown,5.41,100.34,86.0,66,20,5.82,MY,1596031223
1,samarai,-10.62,150.67,77.14,85,99,17.25,PG,1596031513
2,ankang,32.68,109.02,75.0,51,100,1.01,CN,1596031515
3,hambantota,6.12,81.12,84.2,74,20,8.05,LK,1596031518
4,nanortalik,60.14,-45.24,46.72,93,100,9.91,GL,1596031520
5,busselton,-33.65,115.33,48.99,83,56,4.14,AU,1596031442
6,cayenne,4.93,-52.33,86.0,62,20,3.36,GF,1596031524
7,oranjemund,-28.55,16.43,58.95,68,0,18.52,NA,1596031527
8,uige,-7.61,15.06,68.0,77,90,4.7,AO,1596031529
9,severo-kurilsk,50.68,156.12,51.49,88,100,14.14,RU,1596031532
10,punta arenas,-53.15,-70.92,39.0,80,40,2.24,CL,1596031535
11,provideniya,64.38,-173.3,49.01,90,100,8.14,RU,1596031537
12,nikolskoye,59.7,30.79,68.0,88,90,4.47,RU,1596031539
13,kapaa,22.08,-159.32,77.0,83,75,18.34,US,1596031541
14,rikitea,-23.12,-134.97,72.12,79,21,9.6,PF,1596031544
15,lorengau,-2.02,147.27,82.0,67,83,5.59,PG,1596031546
16,cockburn town,21.46,-71.14,83.07,82,0,17.0,TC,1596031548
17,arraial do cabo,-22.97,-42.03,75.2,88,75,14.99,BR,1596031346
18,necochea,-38.55,-58.74,45.0,73,0,7.0,AR,1596031552
19,omboue,-1.57,9.26,77.59,67,93,10.29,GA,1596031555
20,jamestown,42.1,-79.24,77.0,73,75,8.05,US,1596031557
21,coromandel,-18.47,-47.2,71.6,46,95,6.85,BR,1596031559
22,vila franca do campo,37.72,-25.43,73.4,88,40,11.41,PT,1596031561
23,izhma,65.01,53.91,67.6,36,0,7.36,RU,1596031564
24,port-gentil,-0.72,8.78,75.72,75,98,14.94,GA,1596031270
25,mataura,-46.19,168.86,47.62,90,100,2.62,NZ,1596031568
26,mar del plata,-38.0,-57.56,48.99,75,0,8.05,AR,1596031563
27,vanino,49.09,140.25,65.91,93,0,1.5,RU,1596031573
28,rodeo,38.03,-122.27,57.99,82,1,6.67,US,1596031576
29,khangah dogran,31.83,73.62,92.14,47,74,15.37,PK,1596031578
30,port lincoln,-34.73,135.87,53.44,86,0,4.97,AU,1596031580
31,sergeyevka,53.88,67.42,66.6,63,98,2.15,KZ,1596031582
32,bilibino,68.05,166.44,43.29,64,100,6.71,RU,1596031585
33,presidencia roque saenz pena,-26.79,-60.44,50.65,47,0,5.93,AR,1596031587
34,bluff,-46.6,168.33,49.35,92,100,12.46,NZ,1596031503
35,barrow,71.29,-156.79,42.8,81,90,25.28,US,1596031591
36,cape town,-33.93,18.42,66.0,72,75,9.17,ZA,1596031594
37,tuktoyaktuk,69.45,-133.04,46.4,87,90,3.36,CA,1596031596
38,islamkot,24.7,70.18,90.46,62,88,20.09,PK,1596031598
39,hermanus,-34.42,19.23,63.0,72,0,7.0,ZA,1596031601
40,henties bay,-22.12,14.28,61.0,85,0,1.01,NA,1596031603
41,beysehir,37.68,31.72,89.96,26,0,7.65,TR,1596031605
42,albany,42.6,-73.97,77.0,64,0,2.91,US,1596031518
43,makakilo city,21.35,-158.09,77.0,73,40,3.36,US,1596031610
44,bandarbeyla,9.49,50.81,82.8,65,89,28.36,SO,1596031612
45,luderitz,-26.65,15.16,69.8,46,0,18.34,NA,1596031614
46,teknaf,20.86,92.31,81.82,86,100,5.95,BD,1596031617
47,kaitangata,-46.28,169.85,46.99,75,100,4.23,NZ,1596031619
48,sao filipe,14.9,-24.5,78.64,82,100,2.66,CV,1596031621
49,kahului,20.89,-156.47,75.2,73,90,11.41,US,1596031624
50,axim,4.87,-2.24,80.56,69,3,10.22,GH,1596031626
51,butaritari,3.07,172.79,83.05,76,98,14.65,KI,1596031628
52,new albany,38.29,-85.82,82.99,61,75,1.36,US,1596031499
53,juneau,58.3,-134.42,51.01,93,40,3.78,US,1596031458
54,molteno,-31.4,26.36,61.29,29,0,18.81,ZA,1596031635
55,mollendo,-17.02,-72.01,62.08,62,43,5.64,PE,1596031637
56,ushuaia,-54.8,-68.3,39.2,94,40,23.04,AR,1596031568
57,bredasdorp,-34.53,20.04,69.8,49,0,12.75,ZA,1596031642
58,borogontsy,62.67,131.17,54.91,84,77,3.65,RU,1596031644
59,aksarka,66.56,67.8,60.04,58,96,5.23,RU,1596031646
60,port macquarie,-31.43,152.92,54.0,92,3,11.12,AU,1596031648
61,vaini,-21.2,-175.2,68.0,72,20,11.41,TO,1596031651
62,dikson,73.51,80.55,49.46,75,100,17.76,RU,1596031653
63,labuhan,-6.88,112.21,74.8,71,33,8.1,ID,1596031655
64,kodiak,57.79,-152.41,55.4,66,1,8.05,US,1596031657
65,nosy varika,-20.58,48.53,68.14,92,100,6.93,MG,1596031660
66,geraldton,-28.77,114.6,51.8,93,0,6.93,AU,1596031662
67,puerto ayora,-0.74,-90.35,66.99,92,97,1.99,EC,1596031664
68,ribeira grande,38.52,-28.7,75.2,88,40,17.22,PT,1596031666
69,grindavik,63.84,-22.43,51.8,87,90,5.82,IS,1596031669
70,nambucca heads,-30.65,153.0,57.2,87,5,8.05,AU,1596031671
71,aioi,34.8,134.47,75.99,99,52,3.18,JP,1596031673
72,goya,-29.14,-59.26,48.7,51,0,5.32,AR,1596031676
73,souillac,-20.52,57.52,73.4,73,20,8.05,MU,1596031678
74,saskylakh,71.92,114.08,54.63,69,0,6.11,RU,1596031680
75,norman wells,65.28,-126.83,57.2,93,90,12.75,CA,1596031683
76,saint-augustin,51.23,-58.65,63.55,63,1,11.9,CA,1596031685
77,beloha,-25.17,45.05,71.71,56,0,11.16,MG,1596031687
78,hobart,-42.88,147.33,50.0,53,20,10.29,AU,1596031545
79,victoria,22.29,114.16,87.01,70,95,10.0,HK,1596031497
80,belyy yar,53.6,91.39,69.8,77,100,4.47,RU,1596031694
81,tasiilaq,65.61,-37.64,42.8,81,75,12.75,GL,1596031696
82,bambous virieux,-20.34,57.76,73.4,73,20,8.05,MU,1596031699
83,fort nelson,58.81,-122.7,55.4,82,75,4.7,CA,1596031701
84,opuwo,-18.06,13.84,80.17,16,0,5.75,NA,1596031703
85,baykit,61.67,96.37,63.93,75,51,7.92,RU,1596031705
86,bengkulu,-3.8,102.27,77.7,89,41,8.21,ID,1596031707
87,okhotsk,59.38,143.3,67.95,55,99,10.49,RU,1596031710
88,rio grande,-32.03,-52.1,50.0,53,4,11.41,BR,1596031453
89,uarini,-2.99,-65.11,80.6,94,40,2.24,BR,1596031714
90,ratnagiri,16.98,73.3,81.61,82,100,10.33,IN,1596031716
91,buala,-8.14,159.59,79.9,79,45,3.62,SB,1596031719
92,gurupi,-11.73,-49.07,88.63,25,0,10.16,BR,1596031721
93,yellowknife,62.46,-114.35,63.0,87,20,5.82,CA,1596031723
94,kavieng,-2.57,150.8,82.83,66,0,5.55,PG,1596031725
95,nombre de dios,23.85,-104.23,60.8,100,75,3.2,MX,1596031727
96,college,64.86,-147.8,51.8,76,75,5.82,US,1596031730
97,iqaluit,63.75,-68.51,66.2,59,40,9.17,CA,1596031732
98,new norfolk,-42.78,147.06,48.99,77,6,3.0,AU,1596031734
99,akyab,20.15,92.9,83.35,84,100,8.03,MM,1596031736
100,lagoa,39.05,-27.98,73.71,88,0,22.66,PT,1596031739
101,thompson,55.74,-97.86,57.2,100,20,2.24,CA,1596031741
102,port alfred,-33.59,26.89,64.38,63,0,17.81,ZA,1596031743
103,pangnirtung,66.15,-65.71,48.2,93,90,10.29,CA,1596031746
104,anadyr,64.75,177.48,48.2,93,92,4.47,RU,1596031748
105,teya,60.38,92.63,59.79,88,90,4.38,RU,1596031750
106,sola,-13.88,167.55,80.06,84,100,16.91,VU,1596031752
107,san cristobal,7.77,-72.22,80.6,74,40,2.24,VE,1596031507
108,east london,-33.02,27.91,64.4,68,0,14.99,ZA,1596031757
109,zhanaozen,43.3,52.8,83.55,27,100,19.42,KZ,1596031759
110,jalu,29.03,21.55,100.92,15,0,6.67,LY,1596031761
111,longyearbyen,78.22,15.64,51.8,87,75,1.12,SJ,1596031764
112,atuona,-9.8,-139.03,79.34,77,7,21.56,PF,1596031766
113,grand gaube,-20.01,57.66,73.0,74,12,5.99,MU,1596031768
114,hasaki,35.73,140.83,68.0,94,75,8.05,JP,1596031770
115,hirado,33.36,129.55,80.01,86,5,5.99,JP,1596031773
116,ponta do sol,32.67,-17.1,73.0,62,21,2.66,PT,1596031775
117,mendi,-6.18,143.65,56.25,100,93,1.54,PG,1596031777
118,chulman,56.85,124.91,63.3,91,78,3.47,RU,1596031780
119,verkhnyaya inta,65.98,60.31,60.89,46,53,10.8,RU,1596031782
120,baoshan,46.56,131.42,68.27,88,0,6.02,CN,1596031784
121,maumere,-8.62,122.21,76.96,75,35,10.33,ID,1596031786
122,parabel,58.7,81.48,61.79,77,81,7.47,RU,1596031789
123,saint-philippe,-21.36,55.77,71.6,83,90,19.46,RE,1596031791
124,qaanaaq,77.48,-69.36,42.26,75,54,3.09,GL,1596031793
125,machico,32.7,-16.77,73.4,69,40,12.75,PT,1596031795
126,juba,4.85,31.58,80.11,79,42,5.84,SS,1596031798
127,lulea,65.58,22.15,64.4,82,75,10.29,SE,1596031800
128,ostersund,63.18,14.64,59.0,87,72,5.82,SE,1596031802
129,lebu,-37.62,-73.65,44.37,63,18,3.24,CL,1596031805
130,upernavik,72.79,-56.15,43.27,92,100,3.65,GL,1596031807
131,salalah,17.02,54.09,82.4,88,75,13.87,OM,1596031809
132,port hedland,-20.32,118.57,59.0,67,0,5.82,AU,1596031812
133,port hawkesbury,45.62,-61.35,71.01,94,90,5.82,CA,1596031814
134,nemuro,43.32,145.57,59.7,92,18,10.25,JP,1596031817
135,chokurdakh,70.63,147.92,44.55,72,98,7.54,RU,1596031819
136,marrakesh,31.63,-8.01,95.0,36,40,5.82,MA,1596031821
137,kindu,-2.95,25.95,97.86,16,0,2.86,CD,1596031823
138,srednekolymsk,67.45,153.68,45.93,85,90,9.6,RU,1596031825
139,sovetskiy,61.36,63.58,63.16,48,70,3.36,RU,1596031828
140,zholymbet,51.74,71.71,65.1,55,4,8.72,KZ,1596031830
141,contamana,-7.33,-75.02,82.51,62,1,2.37,PE,1596031832
142,vardo,70.37,31.11,55.4,87,75,16.11,NO,1596031834
143,hervey bay,-25.3,152.85,55.0,80,0,4.0,AU,1596031837
144,constitucion,-35.33,-72.42,48.22,61,29,4.56,CL,1596031591
145,qaqortoq,60.72,-46.03,55.4,76,75,3.36,GL,1596031841
146,sochi,43.6,39.73,80.6,61,20,6.71,RU,1596031843
147,naze,28.37,129.48,84.2,89,20,4.7,JP,1596031846
148,chuy,-33.7,-53.46,47.39,71,0,7.9,UY,1596031848
149,fomboni,-12.28,43.74,76.01,85,83,19.44,KM,1596031851
150,korla,41.76,86.15,82.8,32,55,12.71,CN,1596031853
151,port elizabeth,-33.92,25.57,64.4,63,20,21.92,ZA,1596031635
152,cidreira,-30.18,-50.21,50.11,67,74,9.98,BR,1596031858
153,mount isa,-20.73,139.5,55.4,37,0,1.12,AU,1596031860
154,maningrida,-12.07,134.27,64.74,71,91,12.15,AU,1596031862
155,lompoc,34.64,-120.46,57.2,93,90,5.79,US,1596031865
156,mecca,21.43,39.83,93.92,43,44,21.12,SA,1596031867
157,gat,31.61,34.76,91.0,54,0,5.01,IL,1596031684
158,vao,-22.67,167.48,70.18,84,100,28.25,NC,1596031872
159,spring hill,28.48,-82.53,81.0,83,1,5.82,US,1596031874
160,songea,-10.68,35.65,77.0,44,40,9.17,TZ,1596031876
161,buin,-33.73,-70.75,53.01,35,0,3.36,CL,1596031879
162,dunedin,-45.87,170.5,46.99,85,100,1.01,NZ,1596031881
163,mandalgovi,45.76,106.27,67.93,55,100,1.3,MN,1596031883
164,khatanga,71.97,102.5,60.66,62,0,6.02,RU,1596031885
165,athabasca,54.72,-113.29,62.62,92,100,5.95,CA,1596031888
166,panguipulli,-39.63,-72.33,35.6,100,90,2.24,CL,1596031890
167,hilo,19.73,-155.09,71.6,83,90,5.82,US,1596031893
168,sibolga,1.74,98.78,76.89,73,100,5.68,ID,1596031895
169,paracatu,-17.22,-46.87,78.98,39,3,6.96,BR,1596031666
170,ucluelet,48.93,-125.55,55.99,100,90,2.24,CA,1596031725
171,petatlan,17.52,-101.27,80.6,83,75,2.66,MX,1596031902
172,kruisfontein,-34.0,24.73,66.0,59,0,3.0,ZA,1596031904
173,shimanovsk,52.0,127.7,71.98,78,0,4.54,RU,1596031906
174,shimoda,34.67,138.95,64.99,96,100,8.61,JP,1596031908
175,airai,-8.93,125.41,53.55,100,73,2.89,TL,1596031911
176,torrington,41.8,-73.12,84.0,58,14,1.99,US,1596031913
177,anantnag,33.73,75.15,72.25,68,31,7.07,IN,1596031854
178,tarpon springs,28.15,-82.76,84.99,69,1,5.82,US,1596031918
179,stornoway,58.21,-6.39,55.99,76,75,10.29,GB,1596031920
180,saldanha,-33.01,17.94,66.2,59,0,8.05,ZA,1596031801
181,ruthin,53.11,-3.32,64.0,63,40,8.05,GB,1596031925
182,tessalit,20.2,1.01,105.22,12,0,8.97,ML,1596031927
183,esperance,-33.87,121.9,53.6,93,0,8.05,AU,1596031929
184,berlevag,70.86,29.09,60.01,75,0,21.43,NO,1596031932
185,kysyl-syr,63.9,122.76,51.44,73,0,5.48,RU,1596031934
186,hirara,24.8,125.28,85.35,80,96,19.73,JP,1596031936
187,acarau,-2.89,-40.12,85.91,48,0,12.21,BR,1596031927
188,chicama,-7.84,-79.15,65.75,64,33,3.91,PE,1596031940
189,inuvik,68.35,-133.72,46.4,93,90,8.05,CA,1596031846
190,vanavara,60.34,102.28,58.44,83,99,7.07,RU,1596031945
191,leningradskiy,69.38,178.42,37.63,80,47,3.62,RU,1596031947
192,northam,51.03,-4.22,66.99,72,63,7.0,GB,1596031949
193,hithadhoo,-0.6,73.08,83.68,78,31,17.67,MV,1596031875
194,calama,-22.47,-68.93,46.4,2,0,24.16,CL,1596031904
195,villefranche-sur-saone,45.98,4.72,87.01,35,0,7.0,FR,1596031956
196,touros,-5.2,-35.46,82.4,69,75,10.29,BR,1596031958
197,fortuna,40.6,-124.16,54.0,100,90,1.28,US,1596031960
198,saint-francois,46.42,3.91,84.2,28,0,5.82,FR,1596031963
199,santa isabel do rio negro,-0.41,-65.02,86.97,63,37,1.25,BR,1596031965
200,weston,26.1,-80.4,89.01,70,20,9.17,US,1596031854
201,ancud,-41.87,-73.82,41.0,100,75,2.24,CL,1596031970
202,nuuk,64.18,-51.72,46.4,100,90,2.24,GL,1596031972
203,talnakh,69.49,88.4,62.6,63,75,2.24,RU,1596031974
204,radeberg,51.12,13.92,75.2,31,5,13.87,DE,1596031977
205,wanning,18.8,110.4,83.52,76,79,5.01,CN,1596031979
206,toora-khem,52.47,96.11,60.35,56,0,2.01,RU,1596031981
207,edd,13.93,41.69,89.76,64,64,11.39,ER,1596031983
208,ust-tsilma,65.44,52.15,68.86,37,10,7.16,RU,1596031986
209,sao jose da coroa grande,-8.9,-35.15,76.57,82,61,15.35,BR,1596031988
210,ville-marie,47.33,-79.43,64.4,82,75,6.93,CA,1596031847
211,beidao,34.57,105.89,69.33,65,95,4.56,CN,1596031992
212,rocha,-34.48,-54.33,48.67,68,0,9.75,UY,1596031827
213,black forest,39.01,-104.7,72.0,32,1,9.17,US,1596031997
214,jasper,37.2,-94.35,77.0,83,90,9.93,US,1596031999
215,ca mau,9.18,105.15,80.53,85,97,4.14,VN,1596032001
216,camalu,30.85,-116.07,57.99,72,0,1.01,MX,1596032003
217,severo-yeniseyskiy,60.37,93.04,56.88,93,99,4.05,RU,1596032006
218,atar,20.52,-13.05,101.79,21,0,12.33,MR,1596032008
219,pueblo nuevo,23.38,-105.38,61.27,94,78,1.99,MX,1596032010
220,araouane,18.9,-3.53,99.09,28,39,6.31,ML,1596032012
221,puerto madryn,-42.77,-65.04,43.05,63,0,7.0,AR,1596031718
222,tuatapere,-46.13,167.68,51.71,86,100,7.61,NZ,1596032017
223,rundu,-17.93,19.77,80.74,16,0,4.27,NA,1596032019
224,bethel,41.37,-73.41,82.0,57,1,5.82,US,1596032021
225,lashio,22.93,97.75,70.05,96,100,2.04,MM,1596032024
226,padang,-0.95,100.35,78.31,76,87,4.05,ID,1596032026
227,volokonovka,50.48,37.86,86.97,40,0,5.79,RU,1596032028
228,pisco,-13.7,-76.22,60.8,77,90,6.93,PE,1596032030
229,vestmannaeyjar,63.44,-20.27,53.6,81,20,8.05,IS,1596032032
230,indramayu,-6.33,108.32,78.1,66,21,9.46,ID,1596032035
231,tiznit,29.58,-9.5,95.68,21,0,6.04,MA,1596032037
232,mehar,27.18,67.82,111.87,19,74,14.99,PK,1596032039
233,sivaki,52.63,126.75,71.98,74,29,5.68,RU,1596032042
234,mehran,33.12,46.16,96.8,23,20,11.41,IR,1596032044
235,salina,38.84,-97.61,75.2,88,90,4.7,US,1596031979
236,mersing,2.43,103.84,77.0,94,99,3.36,MY,1596032048
237,pergamino,-33.89,-60.57,52.0,45,0,1.99,AR,1596031760
238,ubinskoye,55.31,79.68,61.54,87,100,9.24,RU,1596032053
239,qasigiannguit,68.82,-51.19,42.8,75,40,5.82,GL,1596032055
240,tarakan,3.3,117.63,83.52,76,99,8.34,ID,1596032057
241,ternate,0.8,127.4,78.55,81,61,6.96,ID,1596032060
242,ostrovnoy,68.05,39.51,57.99,67,0,14.63,RU,1596032062
243,sal rei,16.18,-22.92,86.0,62,75,11.41,CV,1596032064
244,carutapera,-1.2,-46.02,87.49,54,0,3.36,BR,1596032066
245,lodwar,3.12,35.6,90.81,34,1,8.84,KE,1596032069
246,pemangkat,1.17,108.97,79.07,84,100,8.55,ID,1596032071
247,paita,-5.09,-81.11,64.4,77,2,17.22,PE,1596032073
248,nome,64.5,-165.41,46.99,93,90,11.41,US,1596032075
249,tiksi,71.69,128.87,41.63,83,100,9.06,RU,1596032078
250,aden,12.78,45.04,87.75,70,0,14.34,YE,1596032080
251,moron,-34.65,-58.62,53.01,46,0,8.05,AR,1596032082
252,kungurtug,50.6,97.52,54.03,75,0,0.54,RU,1596032084
253,jacareacanga,-6.22,-57.75,84.2,62,0,3.36,BR,1596032087
254,negara,-8.32,114.6,71.98,78,95,7.29,ID,1596032089
255,mahibadhoo,3.78,72.97,83.01,78,100,17.47,MV,1596032091
256,katsuura,35.13,140.3,72.0,88,75,9.17,JP,1596032093
257,clyde river,70.47,-68.59,41.0,93,75,3.36,CA,1596032095
258,khandyga,62.67,135.6,57.63,39,97,8.57,RU,1596031926
259,vieste,41.88,16.18,95.0,32,5,18.34,IT,1596032100
260,tiarei,-17.53,-149.33,77.0,78,75,14.99,PF,1596032102
261,la baule-escoublac,47.29,-2.36,77.0,44,0,5.82,FR,1596032105
262,broome,42.25,-75.83,79.0,60,40,9.17,US,1596032107
263,avarua,-21.21,-159.78,69.8,88,93,12.75,CK,1596031974
264,helong,42.54,129.0,63.54,89,51,1.81,CN,1596032111
265,goderich,43.75,-81.72,73.99,82,33,8.28,CA,1596032114
266,kefamenanu,-9.45,124.48,64.29,85,15,4.5,ID,1596032116
267,palmdale,34.58,-118.12,73.99,33,1,6.93,US,1596032076
268,deputatskiy,69.3,139.9,35.62,86,15,4.94,RU,1596032120
269,pevek,69.7,170.31,35.71,89,80,5.26,RU,1596031927
270,mrakovo,52.72,56.62,71.55,77,100,1.3,RU,1596032125
271,sao miguel do araguaia,-13.28,-50.16,84.2,36,77,8.19,BR,1596032127
272,tari,12.41,4.49,91.89,45,1,10.04,NG,1596032129
273,warrnambool,-38.38,142.48,48.99,89,5,10.33,AU,1596032020
274,montlucon,46.33,2.6,86.0,35,0,4.25,FR,1596032134
275,sorong,-0.88,131.25,78.49,87,49,12.88,ID,1596032136
276,castro,-24.79,-50.01,59.86,87,98,7.02,BR,1596031920
277,sinnamary,5.38,-52.95,84.61,67,0,11.18,GF,1596032141
278,mashhad,36.3,59.61,91.4,19,0,16.11,IR,1596032143
279,karratha,-20.74,116.85,68.72,66,0,2.98,AU,1596032145
280,kailua,21.4,-157.74,75.99,73,75,10.29,US,1596032147
281,gazojak,41.19,61.4,93.11,11,1,14.18,TM,1596032150
282,marsabit,2.33,37.99,79.3,39,0,21.92,KE,1596032152
283,carnarvon,-24.87,113.63,62.6,88,0,8.05,AU,1596032154
284,gasa,31.5,34.47,91.0,54,0,1.99,PS,1596032156
285,trapani,37.83,12.67,91.99,79,0,14.99,IT,1596032070
286,balsas,-7.53,-46.04,89.17,35,0,9.22,BR,1596032161
287,dzilam gonzalez,21.28,-88.93,82.65,77,16,7.72,MX,1596032163
288,mahanoro,-19.9,48.8,69.57,93,100,3.33,MG,1596032165
289,port blair,11.67,92.75,82.71,79,100,10.51,IN,1596031965
290,guilin,25.28,110.29,80.6,88,20,2.24,CN,1596032170
291,masty,53.41,24.54,73.4,43,75,13.42,BY,1596032172
292,challapalle,16.12,80.93,87.8,79,40,3.36,IN,1596032174
293,brookings,44.31,-96.8,72.0,68,1,9.17,US,1596032176
294,jaruco,23.04,-82.01,84.2,74,7,10.29,CU,1596032178
295,cabo san lucas,22.89,-109.91,80.01,82,82,1.01,MX,1596032181
296,omsukchan,62.53,155.8,46.4,78,82,7.74,RU,1596032183
297,san quintin,30.48,-115.95,66.92,85,4,9.69,MX,1596032185
298,yar-sale,66.83,70.83,55.89,71,98,0.67,RU,1596032187
299,cervo,43.67,-7.41,69.01,81,46,4.0,ES,1596032190
300,kostomuksha,64.57,30.58,58.71,95,100,7.9,RU,1596032192
301,kirkuk,35.47,44.39,115.79,9,40,20.18,IQ,1596031934
302,ahipara,-35.17,173.17,54.16,84,100,7.4,NZ,1596032196
303,aquiraz,-3.9,-38.39,86.0,51,40,16.11,BR,1596032199
304,susangerd,31.56,48.18,114.8,26,0,4.7,IR,1596032201
305,evensk,61.95,159.23,53.15,78,98,6.6,RU,1596032203
306,lavrentiya,65.58,-171.0,46.74,92,98,5.97,RU,1596031927
307,seguin,29.57,-97.96,82.4,74,40,9.17,US,1596032208
308,sultanpur,26.27,82.07,82.67,84,99,8.19,IN,1596032211
309,saint george,37.1,-113.58,75.0,16,1,1.9,US,1596032213
310,matagami,49.75,-77.63,62.6,93,90,2.91,CA,1596032215
311,kalaleh,37.38,55.49,96.8,47,0,13.87,IR,1596032217
312,ilulissat,69.22,-51.1,42.8,75,40,5.82,GL,1596032220
313,salihorsk,52.79,27.54,72.21,82,100,10.96,BY,1596032222
314,kawalu,-7.38,108.21,67.35,90,34,0.74,ID,1596032224
315,taree,-31.9,152.47,55.4,87,75,8.05,AU,1596032226
316,saravan,39.72,45.65,95.0,24,40,16.11,AM,1596032228
317,novita,4.96,-76.61,81.82,77,32,2.24,CO,1596032231
318,venado tuerto,-33.75,-61.97,54.0,35,0,10.0,AR,1596031992
319,vargem alta,-20.67,-41.01,82.11,37,0,2.06,BR,1596032235
320,ust-ishim,57.69,71.17,61.25,61,50,4.34,RU,1596032237
321,komsomolskiy,40.43,71.72,89.6,21,0,6.93,UZ,1596032239
322,tura,25.52,90.22,75.61,96,100,4.79,IN,1596032225
323,marawi,8.0,124.29,75.99,95,100,4.0,PH,1596032244
324,linhai,28.85,121.12,80.01,55,100,3.2,CN,1596032246
325,aklavik,68.22,-135.01,50.0,93,90,4.7,CA,1596032248
326,sao joao da barra,-21.64,-41.05,82.4,54,1,13.87,BR,1596032251
327,maracacume,-2.04,-45.96,88.47,50,0,3.53,BR,1596032253
328,walvis bay,-22.96,14.51,75.2,41,0,8.05,NA,1596032256
329,barkot,30.82,78.2,70.68,81,100,2.21,IN,1596032258
330,simao,22.79,100.97,67.68,90,68,2.08,CN,1596032260
331,harper,4.38,-7.72,77.11,83,90,11.41,LR,1596032262
332,mayo,38.89,-76.51,89.01,54,1,5.28,US,1596032264
333,bubaque,11.28,-15.83,79.77,81,86,20.04,GW,1596032267
334,haines junction,60.75,-137.51,50.43,84,100,0.94,CA,1596032269
335,cherskiy,68.75,161.3,42.28,80,56,10.36,RU,1596032271
336,hami,42.8,93.45,88.92,12,100,8.81,CN,1596032273
337,solnechnyy,50.72,136.63,71.06,83,0,3.91,RU,1596032276
338,digapahandi,19.37,84.58,82.9,81,100,5.08,IN,1596032278
339,wajima,37.4,136.9,73.58,88,95,2.66,JP,1596032280
340,wattegama,6.8,81.48,84.2,74,20,8.05,LK,1596032282
341,ambon,-3.7,128.18,78.01,15,100,17.4,ID,1596032284
342,bayji,34.93,43.49,119.73,8,53,18.28,IQ,1596032287
343,namatanai,-3.67,152.43,79.99,74,16,4.27,PG,1596032289
344,batagay-alyta,67.8,130.41,44.87,72,0,2.77,RU,1596032291
345,asau,46.43,26.4,91.4,33,20,6.93,RO,1596032293
346,guerrero negro,27.98,-114.06,67.05,87,29,5.3,MX,1596032296
347,binghamton,42.1,-75.92,80.01,60,0,5.93,US,1596032092
348,takoradi,4.88,-1.76,78.85,74,25,10.83,GH,1596032300
349,kitimat,54.05,-128.65,52.0,94,98,3.78,CA,1596032303
350,wahpeton,46.27,-96.61,71.6,68,1,5.08,US,1596032305
351,champerico,14.3,-91.92,75.2,88,40,4.92,GT,1596032307
352,banjar,-8.19,114.97,77.0,78,40,9.17,ID,1596032309
353,coquimbo,-29.95,-71.34,51.8,81,0,6.93,CL,1596032311
354,karasjok,69.47,25.51,75.2,50,99,12.75,NO,1596032314
355,smithers,54.78,-127.17,42.8,93,20,2.24,CA,1596032316
356,port augusta,-32.5,137.77,48.2,93,0,6.93,AU,1596032318
357,puerto penasco,31.32,-113.53,87.01,80,4,17.0,MX,1596032320
358,santa maria del oro,25.93,-105.37,66.36,77,93,2.68,MX,1596032323
359,yakeshi,49.28,120.73,66.4,85,93,5.23,CN,1596032325
360,meulaboh,4.14,96.13,80.29,77,100,6.13,ID,1596032327
361,vysokogornyy,50.12,139.15,65.34,94,0,1.99,RU,1596032329
362,curuca,-0.73,-47.85,88.66,48,0,3.56,BR,1596032331
363,neuquen,-38.95,-68.06,33.8,80,74,3.36,AR,1596032334
364,chapais,49.78,-74.85,64.4,88,75,4.7,CA,1596032336
365,hokitika,-42.72,170.97,52.32,86,100,4.61,NZ,1596032338
366,namtsy,62.72,129.67,59.0,77,46,8.95,RU,1596032340
367,vrangel,42.73,133.08,64.96,89,0,3.74,RU,1596032343
368,kilindoni,-7.91,39.67,76.41,79,0,17.09,TZ,1596032345
369,torbay,47.67,-52.73,57.99,100,90,5.82,CA,1596032347
370,paso de los toros,-32.82,-56.52,48.2,61,0,3.83,UY,1596032349
371,pathein,16.78,94.73,78.33,91,100,1.39,MM,1596032351
372,alofi,-19.06,-169.92,68.0,72,2,11.41,NU,1596032354
373,shingu,33.73,135.98,76.06,93,100,2.8,JP,1596032356
374,lasa,46.62,10.7,71.6,56,40,9.17,IT,1596032358
375,baisha,26.52,110.93,78.19,82,78,1.28,CN,1596032361
376,havoysund,71.0,24.66,75.2,77,41,6.93,NO,1596032363
377,parfino,57.97,31.65,71.74,84,100,8.63,RU,1596032365
378,crawfordsville,40.04,-86.87,78.8,78,1,5.82,US,1596032367
379,sur,22.57,59.53,94.59,50,10,4.34,OM,1596032370
380,craig,40.52,-107.55,57.2,71,1,5.82,US,1596032372
381,pangody,65.85,74.49,60.03,67,97,12.73,RU,1596032374
382,quatre cocos,-20.21,57.76,73.4,73,75,8.05,MU,1596032376
383,broken hill,-31.95,141.43,42.8,35,0,5.99,AU,1596032378
384,puerto del rosario,28.5,-13.86,78.8,65,0,21.92,ES,1596032381
385,olafsvik,64.89,-23.71,51.57,83,98,3.91,IS,1596032383
386,nyurba,63.28,118.33,52.16,83,1,4.12,RU,1596032385
387,liverpool,53.41,-2.98,64.0,63,75,6.93,GB,1596032154
388,douglas,41.3,-96.17,80.6,74,1,4.7,US,1596032390
389,kerouane,9.27,-9.02,78.66,82,16,5.14,GN,1596032392
390,kabare,-2.47,28.82,73.96,44,54,6.11,CD,1596032394
391,avera,33.19,-82.53,81.0,83,75,8.05,US,1596032396
392,ostrogozhsk,50.87,39.08,87.87,33,0,7.18,RU,1596032399
393,shizunai,42.33,142.37,64.06,84,30,4.59,JP,1596032273
394,cap malheureux,-19.98,57.61,72.0,74,7,7.0,MU,1596032403
395,boa vista,2.82,-60.67,84.2,70,40,4.7,BR,1596032405
396,kaupanger,61.18,7.24,66.79,55,93,5.93,NO,1596032408
397,uruzgan,32.83,66.0,85.06,12,0,2.8,AF,1596032410
398,berdigestyakh,62.1,126.7,49.62,94,39,3.91,RU,1596032412
399,pangai,-19.8,-174.35,72.25,67,97,25.41,TO,1596032414
400,metro,-5.11,105.31,74.08,82,30,3.69,ID,1596032417
401,bud,39.45,-86.18,78.01,69,1,2.93,US,1596032419
402,carrboro,35.91,-79.08,81.0,95,52,4.05,US,1596032374
403,faya,18.39,42.45,68.0,64,40,4.7,SA,1596032423
404,luanda,-8.84,13.23,75.2,69,75,6.93,AO,1596032426
405,marsh harbour,26.54,-77.06,82.63,74,100,8.7,BS,1596032428
406,soure,-0.72,-48.52,81.82,67,0,3.71,BR,1596032430
407,praya,14.92,-23.51,87.8,62,40,13.87,CV,1596032433
408,asyut,27.18,31.18,102.2,17,28,13.87,EG,1596032435
409,bozova,37.36,38.53,104.0,10,0,16.11,TR,1596032437
410,hendersonville,36.3,-86.62,82.99,88,90,3.36,US,1596032246
411,manzhouli,49.6,117.43,65.34,86,100,2.91,CN,1596032442
412,caracoli,6.41,-74.76,77.36,74,98,2.64,CO,1596032444
413,aksu,41.12,80.26,85.06,21,50,3.18,CN,1596032446
414,chapada dos guimaraes,-15.46,-55.75,77.0,47,0,8.05,BR,1596032450
415,poum,-20.23,164.02,73.74,89,98,22.77,NC,1596032452
416,brazzaville,-4.27,15.28,87.8,51,40,6.93,CG,1596032454
417,carmarthen,51.86,-4.31,64.99,70,88,7.0,GB,1596032457
418,buraydah,26.33,43.98,114.8,18,92,12.75,SA,1596032459
419,nara,34.69,135.8,78.01,87,67,1.66,JP,1596032461
420,almeirim,-1.52,-52.58,85.86,54,10,5.3,BR,1596032325
421,mana,5.66,-53.78,84.42,67,0,9.08,GF,1596032466
422,codrington,-38.27,141.97,48.38,83,9,7.78,AU,1596032468
423,bathsheba,13.22,-59.52,84.2,74,40,26.4,BB,1596032300
424,elizabeth city,36.29,-76.25,84.99,78,75,5.82,US,1596032472
425,vieques,18.43,-65.83,87.8,66,75,14.99,PR,1596032475
426,tilichiki,60.47,166.1,50.4,91,100,1.25,RU,1596032477
427,puerto baquerizo moreno,-0.9,-89.6,67.08,88,73,14.61,EC,1596032479
428,petropavlovsk-kamchatskiy,53.05,158.65,55.4,71,90,2.24,RU,1596032481
429,dinguiraye,11.3,-10.72,81.25,83,50,2.51,GN,1596032484
430,tazmalt,36.39,4.4,84.2,74,20,6.93,DZ,1596032486
431,shahrud,36.42,54.98,92.16,21,1,12.88,IR,1596032488
432,cranbrook,49.5,-115.77,64.4,48,20,0.27,CA,1596032463
433,richards bay,-28.78,32.04,70.03,55,0,7.63,ZA,1596032397
434,sitka,57.05,-135.33,51.8,87,1,2.98,US,1596032296
435,notre-dame-du-lac,47.61,-68.8,72.0,73,40,5.82,CA,1596032498
436,victor harbor,-35.57,138.62,52.0,91,7,7.38,AU,1596032500
437,san patricio,19.22,-104.7,78.8,83,75,6.93,MX,1596032502
438,farafangana,-22.82,47.83,67.98,91,100,12.24,MG,1596032504
439,veracruz,19.33,-96.67,81.0,94,90,2.8,MX,1596032506
440,thinadhoo,0.53,72.93,83.16,79,0,15.55,MV,1596032509
441,ishigaki,24.34,124.16,85.46,79,99,17.38,JP,1596032511
442,tabuk,17.42,121.44,75.83,85,100,1.39,PH,1596032465
443,pacific grove,36.62,-121.92,55.99,92,52,1.01,US,1596032515
444,batagay,67.63,134.63,44.08,67,1,2.68,RU,1596032518
445,tuy hoa,13.08,109.3,80.65,86,100,2.37,VN,1596032520
446,yuncheng,35.02,110.99,79.45,74,0,6.15,CN,1596032522
447,brora,58.01,-3.85,62.6,59,75,19.46,GB,1596032525
448,tambacounda,13.75,-13.76,89.6,59,75,4.7,SN,1596032527
449,mnogovershinnyy,53.94,139.92,69.46,79,0,4.76,RU,1596032529
450,vestmanna,62.16,-7.17,50.0,87,100,25.28,FO,1596032532
451,liku,-0.73,119.89,75.74,84,100,1.92,ID,1596032534
452,porto novo,6.5,2.6,82.4,74,20,12.75,BJ,1596032536
453,progreso,21.28,-89.67,84.99,83,20,4.7,MX,1596032538
454,bowen,-20.02,148.23,54.0,87,0,5.39,AU,1596032541
455,cordoba,-31.41,-64.18,53.6,32,0,10.29,AR,1596032543
456,bend,44.06,-121.32,70.0,59,1,4.7,US,1596032308
457,lata,40.16,-8.33,95.0,50,0,4.0,PT,1596032548
458,asopos,36.73,22.87,87.8,43,0,16.11,GR,1596032550
459,shahpura,27.38,75.97,82.4,74,75,3.36,IN,1596032552
460,machilipatnam,16.17,81.13,87.8,79,40,3.36,IN,1596032554
461,simnas,54.4,23.65,71.6,46,37,16.11,LT,1596032557
462,neos marmaras,40.1,23.78,93.0,35,0,3.0,GR,1596032559
463,sabang,5.89,95.32,83.66,72,100,8.21,ID,1596032561
464,bikin,46.82,134.26,68.81,92,0,3.11,RU,1596032563
465,kananga,-5.9,22.42,98.26,13,0,0.43,CD,1596032566
466,itoman,26.12,127.67,84.2,83,20,11.41,JP,1596032568
467,itarema,-2.92,-39.92,86.0,47,0,12.88,BR,1596032570
468,manggar,-2.88,108.27,79.56,79,100,10.4,ID,1596032449
469,panorama,40.59,23.03,97.0,32,20,8.05,GR,1596032574
470,vila velha,-20.33,-40.29,80.6,61,0,13.87,BR,1596032534
471,requena,39.49,-1.1,90.0,36,0,12.1,ES,1596032579
472,cozumel,20.51,-86.95,86.0,74,40,10.29,MX,1596032403
473,aasiaat,68.71,-52.87,40.53,82,5,7.47,GL,1596032583
474,tecoanapa,16.52,-98.75,80.28,84,45,4.9,MX,1596032586
475,puerto parra,6.65,-74.06,84.2,79,20,4.7,CO,1596032588
476,kant,27.8,79.8,79.92,86,100,8.86,IN,1596032590
477,pointe michel,15.25,-61.38,84.2,100,40,3.36,DM,1596032592
478,narsaq,60.92,-46.05,55.4,76,75,3.36,GL,1596032570
479,greenwood,34.17,-82.12,82.99,83,20,10.29,US,1596032597
480,kyren,51.68,102.14,61.45,85,100,4.03,RU,1596032599
481,isabela,6.71,121.97,78.64,82,100,3.76,PH,1596032601
482,los llanos de aridane,28.66,-17.92,78.8,61,20,16.11,ES,1596032313
483,riyadh,24.69,46.72,114.8,15,22,3.36,SA,1596032346
484,aloleng,16.13,119.78,79.59,86,100,5.97,PH,1596032353
485,jalapa,19.53,-96.92,67.03,85,100,0.83,MX,1596032412
486,pangkalanbuun,-2.68,111.62,73.89,84,49,3.91,ID,1596032533
487,ozernovskiy,51.5,156.52,52.05,93,99,9.4,RU,1596032615
488,coahuayana,18.73,-103.68,69.8,94,75,2.48,MX,1596032617
489,paamiut,61.99,-49.67,46.76,95,93,1.1,GL,1596032320
490,arica,-18.48,-70.3,59.0,72,90,5.82,CL,1596032621
491,miramar,25.99,-80.23,89.01,70,40,8.05,US,1596032624
492,imeni poliny osipenko,52.42,136.49,72.82,89,3,5.77,RU,1596032626
493,fez,34.04,-5.0,100.4,31,40,11.41,MA,1596032441
494,kjollefjord,70.95,27.35,59.0,77,23,6.93,NO,1596032631
495,sao paulo de olivenca,-3.38,-68.87,79.47,81,78,1.7,BR,1596032633
496,lubango,-14.92,13.49,77.0,18,0,11.41,AO,1596032635
497,kavaratti,10.57,72.64,79.52,84,100,21.39,IN,1596032420
498,pascagoula,30.37,-88.56,84.2,83,1,9.28,US,1596032451
499,muros,42.78,-9.06,90.0,44,0,8.01,ES,1596032642
500,sao felix do xingu,-6.64,-51.99,84.67,36,81,2.84,BR,1596032644
501,darnah,32.77,22.64,83.73,52,0,18.79,LY,1596032646
502,santa vitoria do palmar,-33.52,-53.37,47.34,70,0,7.7,BR,1596032648
503,kirakira,-10.45,161.92,79.11,79,100,6.29,SB,1596032584
504,marquette,46.53,-87.63,71.01,64,6,3.0,US,1596032653
505,prieska,-29.66,22.75,72.48,20,0,13.49,ZA,1596032655
506,najran,17.49,44.13,87.8,48,40,16.11,SA,1596032658
507,balakhta,55.38,91.6,63.46,81,17,2.15,RU,1596032660
508,kangasala,61.46,24.08,63.0,93,75,10.29,FI,1596032662
509,lewisville,33.05,-96.99,80.6,78,75,9.17,US,1596032626
510,soke,13.6,-5.94,88.54,47,68,9.73,ML,1596032667
511,kondinskoye,59.65,67.41,61.12,49,50,6.26,RU,1596032669
512,nadym,65.53,72.52,56.93,77,84,13.78,RU,1596032671
513,synya,65.37,58.04,63.5,46,99,7.85,RU,1596032673
514,kamenka,51.32,42.77,91.0,26,25,5.01,RU,1596032676
515,gamba,-2.65,10.0,77.2,69,45,10.6,GA,1596032678
516,faanui,-16.48,-151.75,79.05,74,87,15.12,PF,1596032680
517,adolfo lopez mateos,28.47,-107.3,63.0,79,0,2.55,MX,1596032682
518,veraval,20.9,70.37,84.74,79,100,15.61,IN,1596032685
519,alyangula,-13.85,136.42,55.4,93,0,3.36,AU,1596032687
520,tutoia,-2.76,-42.27,87.49,46,0,3.38,BR,1596032689
521,lingyuan,41.24,119.4,72.37,68,2,3.94,CN,1596032691
522,kanigoro,-8.13,112.22,66.25,87,9,4.76,ID,1596032560
523,nelson bay,-32.72,152.15,54.0,93,6,9.17,AU,1596032696
524,imbituba,-28.24,-48.67,55.4,54,75,16.11,BR,1596032514
525,ustka,54.58,16.86,64.76,65,19,20.96,PL,1596032700
526,tulun,54.56,100.58,58.26,96,98,2.24,RU,1596032702
527,akdepe,42.06,59.38,91.4,18,0,9.17,TM,1596032705
528,lethem,3.38,-59.8,85.68,59,39,4.05,GY,1596032707
529,ust-nera,64.57,143.2,47.44,54,53,4.32,RU,1596032709
530,gold coast,-28.0,153.43,55.99,87,90,4.7,AU,1596032711
531,marion,39.77,-86.16,80.01,61,20,6.93,US,1596032537
532,akalgarh,29.82,75.88,87.58,65,90,13.06,IN,1596032716
533,noumea,-22.28,166.46,75.2,57,100,14.99,NC,1596032718
534,key west,24.56,-81.78,89.6,70,20,11.41,US,1596032720
535,carora,10.18,-70.08,81.9,60,100,4.7,VE,1596032723
536,belmonte,-15.86,-38.88,78.8,65,40,6.93,BR,1596032725
537,salta,-24.79,-65.41,46.4,49,0,2.24,AR,1596032727
538,the valley,18.22,-63.06,80.6,94,75,29.97,AI,1596032729
539,rusape,-18.53,32.13,66.99,35,82,0.85,ZW,1596032731
540,adrar,20.5,-10.07,102.54,20,0,13.82,MR,1596032734
541,yumen,40.28,97.2,80.4,22,5,8.72,CN,1596032736
542,hobyo,5.35,48.53,80.46,72,11,23.15,SO,1596032738
543,mirnyy,62.54,113.96,50.0,87,38,4.47,RU,1596032740
